Monument,Adresse,Longitude,Latitude,Source
Abbaye Saint-Remi,53 rue Simon,4.0413,49.2434,http://www.culture.gouv.fr/public/mistral/merimee_fr?ACTION=CHERCHER&FIELD_1=REF&VALUE_1=PA00078773
Ancienne Douane,"4 place Royale
Rue du Cloître
Rue du Grand-Credo",4.0317,49.258,http://www.culture.gouv.fr/public/mistral/merimee_fr?ACTION=CHERCHER&FIELD_1=REF&VALUE_1=PA00078805
Basilique Saint-Remi,55 rue Simon,4.0419,49.2431,http://www.culture.gouv.fr/public/mistral/merimee_fr?ACTION=CHERCHER&FIELD_1=REF&VALUE_1=PA00078785
Bibliotheque Carnegie,2 place Carnégie,4.0354,49.253,http://www.culture.gouv.fr/public/mistral/merimee_fr?ACTION=CHERCHER&FIELD_1=REF&VALUE_1=PA00078775
Cathedrale Notre-Dame,Rue du Trésor,4.0339,49.2536,http://www.culture.gouv.fr/public/mistral/merimee_fr?ACTION=CHERCHER&FIELD_1=REF&VALUE_1=PA00078776
Cellier Expedition Mumm,4bis rue de Mars,4.0321,49.2584,http://www.culture.gouv.fr/public/mistral/merimee_fr?ACTION=CHERCHER&FIELD_1=REF&VALUE_1=PA51000002
Chapelle Foujita,Rue du Champ-de-Mars,4.0381,49.2641,http://www.culture.gouv.fr/public/mistral/merimee_fr?ACTION=CHERCHER&FIELD_1=REF&VALUE_1=PA00078928
Chapelle Sainte-Croix,Cimetière du Nord (Reims),4.0316,49.2618,http://www.culture.gouv.fr/public/mistral/merimee_fr?ACTION=CHERCHER&FIELD_1=REF&VALUE_1=PA00078777
Cinema-opera,9-11 rue Thillois,4.0272,49.2539,http://www.culture.gouv.fr/public/mistral/merimee_fr?ACTION=CHERCHER&FIELD_1=REF&VALUE_1=PA00078778
Cirque,2 boulevard du Général-Leclerc,4.0317,49.258,http://www.culture.gouv.fr/public/mistral/merimee_fr?ACTION=CHERCHER&FIELD_1=REF&VALUE_1=PA00132588
College Jesuites,Place Museux,4.040409,49.246563,http://www.culture.gouv.fr/public/mistral/merimee_fr?ACTION=CHERCHER&FIELD_1=REF&VALUE_1=PA00078779
Couvent Cordeliers,"Rue Voltaire, rue des Résinets et de l'Isle",4.0317,49.258,http://www.culture.gouv.fr/public/mistral/merimee_fr?ACTION=CHERCHER&FIELD_1=REF&VALUE_1=PA00078780
Couvent Jacobins,"Rue des Jacobins
Rue Hincmar",4.0318,49.2517,http://www.culture.gouv.fr/public/mistral/merimee_fr?ACTION=CHERCHER&FIELD_1=REF&VALUE_1=PA00078781
Cryptoportique,Place du Forum (Reims),4.0317,49.258,http://www.culture.gouv.fr/public/mistral/merimee_fr?ACTION=CHERCHER&FIELD_1=REF&VALUE_1=PA00078788
Eglise Saint-Jacques,Rue Marx-Dormoy,4.028217,49.253914,http://www.culture.gouv.fr/public/mistral/merimee_fr?ACTION=CHERCHER&FIELD_1=REF&VALUE_1=PA00078782
Eglise Saint-Michel,Cour du Chapitre cathédral de Reims,4.0337,49.2546,http://www.culture.gouv.fr/public/mistral/merimee_fr?ACTION=CHERCHER&FIELD_1=REF&VALUE_1=PA00078783
Eglise Saint-Nicaise,Rue de la Marne,4.0551,49.248,http://www.culture.gouv.fr/public/mistral/merimee_fr?ACTION=CHERCHER&FIELD_1=REF&VALUE_1=PA00078784
Fontaine,"Rue Barbâtre
Rue des Carmes",4.0411,49.2476,http://www.culture.gouv.fr/public/mistral/merimee_fr?ACTION=CHERCHER&FIELD_1=REF&VALUE_1=PA00078787
Fontaine Boucheries,Place Jules-Lobet,4.0291,49.2579,http://www.culture.gouv.fr/public/mistral/merimee_fr?ACTION=CHERCHER&FIELD_1=REF&VALUE_1=PA00078786
Halles Centrales,"Rue du Boulingrin
Rue du Temple
Rue de Mars
Rue Olivier-Metra",4.032,49.2604,http://www.culture.gouv.fr/public/mistral/merimee_fr?ACTION=CHERCHER&FIELD_1=REF&VALUE_1=PA00078789
Hotel Bezannes,8 Cours Jean-Baptiste Langlet,4.0317,49.258,http://www.culture.gouv.fr/public/mistral/merimee_fr?ACTION=CHERCHER&FIELD_1=REF&VALUE_1=PA00078790
Hotel Maupinot,142 rue Barbâtre,4.042528,49.245833,http://www.culture.gouv.fr/public/mistral/merimee_fr?ACTION=CHERCHER&FIELD_1=REF&VALUE_1=PA00078817
Hotel Ponsardin,30 rue Cérès,4.0317,49.258,http://www.culture.gouv.fr/public/mistral/merimee_fr?ACTION=CHERCHER&FIELD_1=REF&VALUE_1=PA00078793
Hotel Postes,"6-8-10 place Royale
2-4 rue Cérès
Rue Grand-Crédo",4.0346,49.2556,http://www.culture.gouv.fr/public/mistral/merimee_fr?ACTION=CHERCHER&FIELD_1=REF&VALUE_1=PA00078794
Hotel Salle,6 rue de l'Arbalète,4.0323,49.2567,http://www.culture.gouv.fr/public/mistral/merimee_fr?ACTION=CHERCHER&FIELD_1=REF&VALUE_1=PA00078816
Hotel ville,Place de l'Hôtel-de-Ville,4.0317,49.258,http://www.culture.gouv.fr/public/mistral/merimee_fr?ACTION=CHERCHER&FIELD_1=REF&VALUE_1=PA00078795
Hotel-Dieu,Place du Cardinal-Luçon,4.0317,49.2543,http://www.culture.gouv.fr/public/mistral/merimee_fr?ACTION=CHERCHER&FIELD_1=REF&VALUE_1=PA00078791
Immeuble,1975 avenue Albert-Einstein,4.0336,49.2552,http://www.culture.gouv.fr/public/mistral/merimee_fr?ACTION=CHERCHER&FIELD_1=REF&VALUE_1=PA00078797
Immeuble,2 rue Bertin,4.0343,49.256,http://www.culture.gouv.fr/public/mistral/merimee_fr?ACTION=CHERCHER&FIELD_1=REF&VALUE_1=PA00078796
porte,"15 rue Carnot
Cour du Chapitre cathédral de Reims",4.033,49.255,http://www.culture.gouv.fr/public/mistral/merimee_fr?ACTION=CHERCHER&FIELD_1=REF&VALUE_1=PA00078798
Immeuble,40 rue du Docteur-Bergougnoux,4.0352,49.2558,http://www.culture.gouv.fr/public/mistral/merimee_fr?ACTION=CHERCHER&FIELD_1=REF&VALUE_1=PA00078800
Immeuble,Rue du Lycée,4.0335,49.2554,http://www.culture.gouv.fr/public/mistral/merimee_fr?ACTION=CHERCHER&FIELD_1=REF&VALUE_1=PA00078802
Immeuble,"2 place Royale
Rue du Cloître
1 rue Carnot",4.0337,49.2552,http://www.culture.gouv.fr/public/mistral/merimee_fr?ACTION=CHERCHER&FIELD_1=REF&VALUE_1=PA00078803
Immeuble,3 place Royale,4.0336,49.2557,http://www.culture.gouv.fr/public/mistral/merimee_fr?ACTION=CHERCHER&FIELD_1=REF&VALUE_1=PA00078804
Immeuble,5 place Royale,4.0335,49.2557,http://www.culture.gouv.fr/public/mistral/merimee_fr?ACTION=CHERCHER&FIELD_1=REF&VALUE_1=PA00078806
Immeuble,7 place Royale,4.0337,49.2557,http://www.culture.gouv.fr/public/mistral/merimee_fr?ACTION=CHERCHER&FIELD_1=REF&VALUE_1=PA00078807
Immeuble,9 place Royale,4.034,49.2559,http://www.culture.gouv.fr/public/mistral/merimee_fr?ACTION=CHERCHER&FIELD_1=REF&VALUE_1=PA00078808
Immeuble,"11 place Royale
1 rue Bertin",4.0341,49.2559,http://www.culture.gouv.fr/public/mistral/merimee_fr?ACTION=CHERCHER&FIELD_1=REF&VALUE_1=PA00078809
Immeuble,13 place Royale,4.0344,49.2559,http://www.culture.gouv.fr/public/mistral/merimee_fr?ACTION=CHERCHER&FIELD_1=REF&VALUE_1=PA00078810
Immeuble,"15 place Royale
1 rue Cérès",4.0346,49.2556,http://www.culture.gouv.fr/public/mistral/merimee_fr?ACTION=CHERCHER&FIELD_1=REF&VALUE_1=PA00078811
Immeuble,1bis rue A. Réville.,4.032,49.259028,http://www.culture.gouv.fr/public/mistral/merimee_fr?ACTION=CHERCHER&FIELD_1=REF&VALUE_1=PA00078812
Immeuble,22 rue de Tambour,4.033,49.2574,http://www.culture.gouv.fr/public/mistral/merimee_fr?ACTION=CHERCHER&FIELD_1=REF&VALUE_1=PA00078813
Immeuble,1 rue Trudaine,4.0334,49.2556,http://www.culture.gouv.fr/public/mistral/merimee_fr?ACTION=CHERCHER&FIELD_1=REF&VALUE_1=PA00078814
Immeuble,2 rue Trudaine,4.0335,49.2557,http://www.culture.gouv.fr/public/mistral/merimee_fr?ACTION=CHERCHER&FIELD_1=REF&VALUE_1=PA00078815
Maison,2 rue Colbert,4.0338,49.256,http://www.culture.gouv.fr/public/mistral/merimee_fr?ACTION=CHERCHER&FIELD_1=REF&VALUE_1=PA00078818
Maison,5 rue du Marc,4.0338,49.2578,http://www.culture.gouv.fr/public/mistral/merimee_fr?ACTION=CHERCHER&FIELD_1=REF&VALUE_1=PA00078801
Maison Menetriers,18-20 rue du Tambour,4.033,49.2574,http://www.culture.gouv.fr/public/mistral/merimee_fr?ACTION=CHERCHER&FIELD_1=REF&VALUE_1=PA00078819
Maison Pans Bois,"22-24 place Timothée
Rue Saint-Julien",4.0436,49.2432,http://www.culture.gouv.fr/public/mistral/merimee_fr?ACTION=CHERCHER&FIELD_1=REF&VALUE_1=PA00078820
Musee Beaux-arts,8 rue Chanzy,4.0309,49.2533,http://www.culture.gouv.fr/public/mistral/merimee_fr?ACTION=CHERCHER&FIELD_1=REF&VALUE_1=PA00078772
Musee Reddition,10 rue Franklin-Roosevelt,4.0269,49.263,http://www.culture.gouv.fr/public/mistral/merimee_fr?ACTION=CHERCHER&FIELD_1=REF&VALUE_1=PA00078828
Musee-hotel Vergeur,"1 rue du Marc
Rue Pluche
36 place du Forum",4.0342,49.2571,http://www.culture.gouv.fr/public/mistral/merimee_fr?ACTION=CHERCHER&FIELD_1=REF&VALUE_1=PA00078792
Palais Tau,Place du Cardinal-Luçon,4.0347,49.2533,http://www.culture.gouv.fr/public/mistral/merimee_fr?ACTION=CHERCHER&FIELD_1=REF&VALUE_1=PA00078774
Parc Champagne,Avenue du Général-Giraud,4.0558,49.2408,http://www.culture.gouv.fr/public/mistral/merimee_fr?ACTION=CHERCHER&FIELD_1=REF&VALUE_1=PA51000012
Pavillon Muire,Rue Linguet,4.0339,49.2588,http://www.culture.gouv.fr/public/mistral/merimee_fr?ACTION=CHERCHER&FIELD_1=REF&VALUE_1=PA00078821
Piscine Tennis-Club,15 rue Lagrive,4.045,49.2503,http://www.culture.gouv.fr/public/mistral/merimee_fr?ACTION=CHERCHER&FIELD_1=REF&VALUE_1=PA51000007
Place Royale,Place Royale,4.0341,49.2555,http://www.culture.gouv.fr/public/mistral/merimee_fr?ACTION=CHERCHER&FIELD_1=REF&VALUE_1=PA00078822
Porte Bazee,"30 rue de l'Université
1-3 rue Vauthier-Lenoir
2 rue Voltaire
Rue de Courtrai",4.0371,49.2524,http://www.culture.gouv.fr/public/mistral/merimee_fr?ACTION=CHERCHER&FIELD_1=REF&VALUE_1=PA00078824
Porte Mars,Place de la République,4.029903,49.26057,http://www.culture.gouv.fr/public/mistral/merimee_fr?ACTION=CHERCHER&FIELD_1=REF&VALUE_1=PA00078825
Porte Paris,"Rue de Bir-Hakeim (la grille)
10 avenue de Paris (les piliers)",4.0221,49.2555,http://www.culture.gouv.fr/public/mistral/merimee_fr?ACTION=CHERCHER&FIELD_1=REF&VALUE_1=PA00078826
Porte Pourcelette,1 rue Mahé-de-la-Bourdonnais,4.034,49.2527,http://www.culture.gouv.fr/public/mistral/merimee_fr?ACTION=CHERCHER&FIELD_1=REF&VALUE_1=PA00078823
Poudriere,"Butte Saint-Nicaise
Avenue du Général-Giraud",4.047111,49.242667,http://www.culture.gouv.fr/public/mistral/merimee_fr?ACTION=CHERCHER&FIELD_1=REF&VALUE_1=PA00078827
Synagogue,49 rue Clovis,4.0299,49.2493,http://www.culture.gouv.fr/public/mistral/merimee_fr?ACTION=CHERCHER&FIELD_1=REF&VALUE_1=PA00078920
Villa Douce,9 boulevard de la Paix,4.040778,49.255917,http://www.culture.gouv.fr/public/mistral/merimee_fr?ACTION=CHERCHER&FIELD_1=REF&VALUE_1=PA00078929
Basilique Saint-Jean-Baptiste,,5.1383,48.1125,http://www.culture.gouv.fr/public/mistral/merimee_fr?ACTION=CHERCHER&FIELD_1=REF&VALUE_1=PA00079013
Chapelle Notre-Dame-Assomption Buxereuilles,,5.1355,48.1261,http://www.culture.gouv.fr/public/mistral/merimee_fr?ACTION=CHERCHER&FIELD_1=REF&VALUE_1=PA00079008
Immeuble,30 rue Félix Bablon,5.1369,48.1099,http://www.culture.gouv.fr/public/mistral/merimee_fr?ACTION=CHERCHER&FIELD_1=REF&VALUE_1=PA00079022
Immeuble,6bis rue Edmé Bouchardon,5.1398,48.1123,http://www.culture.gouv.fr/public/mistral/merimee_fr?ACTION=CHERCHER&FIELD_1=REF&VALUE_1=PA00079020
Immeuble,8 rue Edmé Bouchardon,5.1399,48.1123,http://www.culture.gouv.fr/public/mistral/merimee_fr?ACTION=CHERCHER&FIELD_1=REF&VALUE_1=PA00079021
Hopital,Avenue Carnot,5.13989,48.12014,http://www.culture.gouv.fr/public/mistral/merimee_fr?ACTION=CHERCHER&FIELD_1=REF&VALUE_1=PA00079016
Marche Couvert,Rue Georges Clemenceau,5.1402,48.1101,http://www.culture.gouv.fr/public/mistral/merimee_fr?ACTION=CHERCHER&FIELD_1=REF&VALUE_1=PA00079027
Hotel Ville,10 place de la Concorde,5.14,48.1148,http://www.culture.gouv.fr/public/mistral/merimee_fr?ACTION=CHERCHER&FIELD_1=REF&VALUE_1=PA00079019
Eglise Saint-Martin Brottes,Rue de l'Église,5.1293,48.0826,http://www.culture.gouv.fr/public/mistral/merimee_fr?ACTION=CHERCHER&FIELD_1=REF&VALUE_1=PA00079014
Maison,4 rue du Four,5.139,48.113,http://www.culture.gouv.fr/public/mistral/merimee_fr?ACTION=CHERCHER&FIELD_1=REF&VALUE_1=PA00079025
Hotel,14 rue Girardon,5.1397,48.1135,http://www.culture.gouv.fr/public/mistral/merimee_fr?ACTION=CHERCHER&FIELD_1=REF&VALUE_1=PA00079017
Hotel,16 rue Girardon,5.1397,48.1136,http://www.culture.gouv.fr/public/mistral/merimee_fr?ACTION=CHERCHER&FIELD_1=REF&VALUE_1=PA00079018
Maison,3 rue Jean Gouthière,5.1375,48.1128,http://www.culture.gouv.fr/public/mistral/merimee_fr?ACTION=CHERCHER&FIELD_1=REF&VALUE_1=PA00079026
Chateau Chaumont,Rue Hautefeuille,5.1364,48.1131,http://www.culture.gouv.fr/public/mistral/merimee_fr?ACTION=CHERCHER&FIELD_1=REF&VALUE_1=PA00079009
Eglise Saint-Aignan,Route de Neuchâteau,5.15009,48.11959,http://www.culture.gouv.fr/public/mistral/merimee_fr?ACTION=CHERCHER&FIELD_1=REF&VALUE_1=PA00079307
Immeuble,9 rue Saint-Jean,5.1393,48.1118,http://www.culture.gouv.fr/public/mistral/merimee_fr?ACTION=CHERCHER&FIELD_1=REF&VALUE_1=PA00079024
Immeuble,15 rue Jules Tréfousse,5.1407,48.111,http://www.culture.gouv.fr/public/mistral/merimee_fr?ACTION=CHERCHER&FIELD_1=REF&VALUE_1=PA00079023
Croix Gratien,11 rue du Val Barizien,5.13432,48.10776,http://www.culture.gouv.fr/public/mistral/merimee_fr?ACTION=CHERCHER&FIELD_1=REF&VALUE_1=PA00079012
Fontaine Bouchardon,46 rue Victoire-de-la-Marne,5.1408,48.1123,http://www.culture.gouv.fr/public/mistral/merimee_fr?ACTION=CHERCHER&FIELD_1=REF&VALUE_1=PA00079015
College Jesuites,48 rue Victoire-de-la-Marne,5.1413,48.1126,http://www.culture.gouv.fr/public/mistral/merimee_fr?ACTION=CHERCHER&FIELD_1=REF&VALUE_1=PA00079010
Batiment Carmelites,81 rue Victoire-de-la-Marne,5.141,48.1138,http://www.culture.gouv.fr/public/mistral/merimee_fr?ACTION=CHERCHER&FIELD_1=REF&VALUE_1=PA00079306
Couvent Carmelites,87 rue Victoire-de-la-Marne,5.14056,48.11397,http://www.culture.gouv.fr/public/mistral/merimee_fr?ACTION=CHERCHER&FIELD_1=REF&VALUE_1=PA00079011
Bains-douches,5 rue Couvelet,4.722753,49.770615,http://www.culture.gouv.fr/public/mistral/merimee_fr?ACTION=CHERCHER&FIELD_1=REF&VALUE_1=PA08000001
Basilique Notre-Dame Esperance,,4.716,49.7613,http://www.culture.gouv.fr/public/mistral/merimee_fr?ACTION=CHERCHER&FIELD_1=REF&VALUE_1=PA00078361
Depot Ferroviaire Mohon,Rue du Port,4.725516,49.755528,http://www.culture.gouv.fr/public/mistral/merimee_fr?ACTION=CHERCHER&FIELD_1=REF&VALUE_1=PA00078462
Eglise Saint-Lie Mohon,,4.751195,49.73944,http://www.culture.gouv.fr/public/mistral/merimee_fr?ACTION=CHERCHER&FIELD_1=REF&VALUE_1=PA00078362
Enceinte,,4.714175,49.761997,http://www.culture.gouv.fr/public/mistral/merimee_fr?ACTION=CHERCHER&FIELD_1=REF&VALUE_1=PA00078363
Hotel Prefecture Ardennes,,4.720162,49.761665,http://www.culture.gouv.fr/public/mistral/merimee_fr?ACTION=CHERCHER&FIELD_1=REF&VALUE_1=PA00078417
Hotel Ville,1-3 place Ducale,4.719861,49.773611,http://www.culture.gouv.fr/public/mistral/merimee_fr?ACTION=CHERCHER&FIELD_1=REF&VALUE_1=PA00078365
Immeuble,2 place Ducale,4.72002,49.773807,http://www.culture.gouv.fr/public/mistral/merimee_fr?ACTION=CHERCHER&FIELD_1=REF&VALUE_1=PA00078366
Immeuble,4 place Ducale,4.720138,49.773893,http://www.culture.gouv.fr/public/mistral/merimee_fr?ACTION=CHERCHER&FIELD_1=REF&VALUE_1=PA00078367
Immeuble,5 place Ducale,4.719897,49.773306,http://www.culture.gouv.fr/public/mistral/merimee_fr?ACTION=CHERCHER&FIELD_1=REF&VALUE_1=PA00078368
Immeuble,6 place Ducale,4.720159,49.774013,http://www.culture.gouv.fr/public/mistral/merimee_fr?ACTION=CHERCHER&FIELD_1=REF&VALUE_1=PA00078369
Immeuble,7 place Ducale,4.720082,49.773275,http://www.culture.gouv.fr/public/mistral/merimee_fr?ACTION=CHERCHER&FIELD_1=REF&VALUE_1=PA00078370
Immeuble,8 place Ducale,4.720186,49.77407,http://www.culture.gouv.fr/public/mistral/merimee_fr?ACTION=CHERCHER&FIELD_1=REF&VALUE_1=PA00078371
Immeuble,9 place Ducale,4.720197,49.77324,http://www.culture.gouv.fr/public/mistral/merimee_fr?ACTION=CHERCHER&FIELD_1=REF&VALUE_1=PA00078372
Immeuble,10 place Ducale,4.720331,49.774096,http://www.culture.gouv.fr/public/mistral/merimee_fr?ACTION=CHERCHER&FIELD_1=REF&VALUE_1=PA00078373
Immeuble,11 place Ducale,4.720272,49.773225,http://www.culture.gouv.fr/public/mistral/merimee_fr?ACTION=CHERCHER&FIELD_1=REF&VALUE_1=PA00078374
Immeuble,12 place Ducale,4.720374,49.77408,http://www.culture.gouv.fr/public/mistral/merimee_fr?ACTION=CHERCHER&FIELD_1=REF&VALUE_1=PA00078375
Immeuble,13 place Ducale,4.720371,49.773207,http://www.culture.gouv.fr/public/mistral/merimee_fr?ACTION=CHERCHER&FIELD_1=REF&VALUE_1=PA00078376
Immeuble,14 place Ducale,4.720449,49.774063,http://www.culture.gouv.fr/public/mistral/merimee_fr?ACTION=CHERCHER&FIELD_1=REF&VALUE_1=PA00078377
Immeuble,15 place Ducale,4.720514,49.77318,http://www.culture.gouv.fr/public/mistral/merimee_fr?ACTION=CHERCHER&FIELD_1=REF&VALUE_1=PA00078378
Immeuble,16 place Ducale,4.720538,49.774044,http://www.culture.gouv.fr/public/mistral/merimee_fr?ACTION=CHERCHER&FIELD_1=REF&VALUE_1=PA00078379
Immeuble,17 place Ducale,4.720822,49.773089,http://www.culture.gouv.fr/public/mistral/merimee_fr?ACTION=CHERCHER&FIELD_1=REF&VALUE_1=PA00078380
Immeuble,18 place Ducale,4.720629,49.774025,http://www.culture.gouv.fr/public/mistral/merimee_fr?ACTION=CHERCHER&FIELD_1=REF&VALUE_1=PA00078381
Immeuble,19 place Ducale,4.720945,49.77307,http://www.culture.gouv.fr/public/mistral/merimee_fr?ACTION=CHERCHER&FIELD_1=REF&VALUE_1=PA00078382
Immeuble,20 place Ducale,4.720696,49.774001,http://www.culture.gouv.fr/public/mistral/merimee_fr?ACTION=CHERCHER&FIELD_1=REF&VALUE_1=PA00078383
Immeuble,21 place Ducale,4.721037,49.773051,http://www.culture.gouv.fr/public/mistral/merimee_fr?ACTION=CHERCHER&FIELD_1=REF&VALUE_1=PA00078384
Immeuble,22 place Ducale,4.72079,49.773995,http://www.culture.gouv.fr/public/mistral/merimee_fr?ACTION=CHERCHER&FIELD_1=REF&VALUE_1=PA00078385
Immeuble,23 place Ducale,4.721117,49.773032,http://www.culture.gouv.fr/public/mistral/merimee_fr?ACTION=CHERCHER&FIELD_1=REF&VALUE_1=PA00078386
Immeuble,"24 place Ducale
Rue du Moulin",4.720868,49.773962,http://www.culture.gouv.fr/public/mistral/merimee_fr?ACTION=CHERCHER&FIELD_1=REF&VALUE_1=PA00078387
Immeuble,25 place Ducale,4.721189,49.773015,http://www.culture.gouv.fr/public/mistral/merimee_fr?ACTION=CHERCHER&FIELD_1=REF&VALUE_1=PA00078388
Immeuble,"26 place Ducale
Rue du Moulin",4.720983,49.773945,http://www.culture.gouv.fr/public/mistral/merimee_fr?ACTION=CHERCHER&FIELD_1=REF&VALUE_1=PA00078389
Immeuble,27 place Ducale,4.721286,49.772996,http://www.culture.gouv.fr/public/mistral/merimee_fr?ACTION=CHERCHER&FIELD_1=REF&VALUE_1=PA00078390
Immeuble,28 place Ducale,4.721197,49.773902,http://www.culture.gouv.fr/public/mistral/merimee_fr?ACTION=CHERCHER&FIELD_1=REF&VALUE_1=PA00078391
Immeuble,29-31 place Ducale,4.72135,49.772986,http://www.culture.gouv.fr/public/mistral/merimee_fr?ACTION=CHERCHER&FIELD_1=REF&VALUE_1=PA00078393
Immeuble,30 place Ducale,4.721291,49.773886,http://www.culture.gouv.fr/public/mistral/merimee_fr?ACTION=CHERCHER&FIELD_1=REF&VALUE_1=PA00078392
Immeuble,32 place Ducale,4.721377,49.773865,http://www.culture.gouv.fr/public/mistral/merimee_fr?ACTION=CHERCHER&FIELD_1=REF&VALUE_1=PA00078394
Immeuble,33 place Ducale,4.721511,49.772944,http://www.culture.gouv.fr/public/mistral/merimee_fr?ACTION=CHERCHER&FIELD_1=REF&VALUE_1=PA00078395
Immeuble,34 place Ducale,4.721466,49.77384,http://www.culture.gouv.fr/public/mistral/merimee_fr?ACTION=CHERCHER&FIELD_1=REF&VALUE_1=PA00078396
Immeuble,35 place Ducale,4.721543,49.772989,http://www.culture.gouv.fr/public/mistral/merimee_fr?ACTION=CHERCHER&FIELD_1=REF&VALUE_1=PA00078397
Immeuble,36 place Ducale,4.721552,49.773815,http://www.culture.gouv.fr/public/mistral/merimee_fr?ACTION=CHERCHER&FIELD_1=REF&VALUE_1=PA00078398
Immeuble,37 place Ducale,4.721584,49.773037,http://www.culture.gouv.fr/public/mistral/merimee_fr?ACTION=CHERCHER&FIELD_1=REF&VALUE_1=PA00078399
Immeuble,38-40 place Ducale,4.721659,49.773791,http://www.culture.gouv.fr/public/mistral/merimee_fr?ACTION=CHERCHER&FIELD_1=REF&VALUE_1=PA00078400
Immeuble,39 place Ducale,4.721602,49.773103,http://www.culture.gouv.fr/public/mistral/merimee_fr?ACTION=CHERCHER&FIELD_1=REF&VALUE_1=PA00078401
Immeuble,41 place Ducale,4.721621,49.773155,http://www.culture.gouv.fr/public/mistral/merimee_fr?ACTION=CHERCHER&FIELD_1=REF&VALUE_1=PA00078402
Immeuble,42 place Ducale,4.721788,49.773755,http://www.culture.gouv.fr/public/mistral/merimee_fr?ACTION=CHERCHER&FIELD_1=REF&VALUE_1=PA00078403
Immeuble,43 place Ducale,4.721664,49.7732,http://www.culture.gouv.fr/public/mistral/merimee_fr?ACTION=CHERCHER&FIELD_1=REF&VALUE_1=PA00078404
Immeuble,44 place Ducale,4.721871,49.773739,http://www.culture.gouv.fr/public/mistral/merimee_fr?ACTION=CHERCHER&FIELD_1=REF&VALUE_1=PA00078405
Immeuble,46 place Ducale,4.721949,49.773722,http://www.culture.gouv.fr/public/mistral/merimee_fr?ACTION=CHERCHER&FIELD_1=REF&VALUE_1=PA00078406
Immeuble,48 place Ducale,4.721922,49.773689,http://www.culture.gouv.fr/public/mistral/merimee_fr?ACTION=CHERCHER&FIELD_1=REF&VALUE_1=PA00078407
Immeuble,50 place Ducale,4.721895,49.773639,http://www.culture.gouv.fr/public/mistral/merimee_fr?ACTION=CHERCHER&FIELD_1=REF&VALUE_1=PA00078408
Immeuble,52 place Ducale,4.721868,49.77358,http://www.culture.gouv.fr/public/mistral/merimee_fr?ACTION=CHERCHER&FIELD_1=REF&VALUE_1=PA00078409
Immeuble,54 place Ducale,4.721825,49.773531,http://www.culture.gouv.fr/public/mistral/merimee_fr?ACTION=CHERCHER&FIELD_1=REF&VALUE_1=PA00078410
Immeuble,56 place Ducale,4.721788,49.773439,http://www.culture.gouv.fr/public/mistral/merimee_fr?ACTION=CHERCHER&FIELD_1=REF&VALUE_1=PA00078411
Immeuble,30-32 rue Victoire-Cousin,4.722844,49.773787,http://www.culture.gouv.fr/public/mistral/merimee_fr?ACTION=CHERCHER&FIELD_1=REF&VALUE_1=PA00078412
Maison,"26 boulevard de Béthune
6 rue Savart",4.719658,49.755514,http://www.culture.gouv.fr/public/mistral/merimee_fr?ACTION=CHERCHER&FIELD_1=REF&VALUE_1=PA08000007
Maison,"16 à 19, 44 à 47 rue de la République",4.720361,49.772782,http://www.culture.gouv.fr/public/mistral/merimee_fr?ACTION=CHERCHER&FIELD_1=REF&VALUE_1=PA00078415
Maison Ardenne,18bis avenue Georges-Corneau,4.722694,49.768266,http://www.culture.gouv.fr/public/mistral/merimee_fr?ACTION=CHERCHER&FIELD_1=REF&VALUE_1=PA00078413
Maison Fortan,1 rue de Jaubert,4.71954,49.76091,http://www.culture.gouv.fr/public/mistral/merimee_fr?ACTION=CHERCHER&FIELD_1=REF&VALUE_1=PA00078414
Place Ducale,,4.720806,49.773546,http://www.culture.gouv.fr/public/mistral/merimee_fr?ACTION=CHERCHER&FIELD_1=REF&VALUE_1=PA00078416
Remparts,Rue Jules-Ferry,4.720092,49.759782,http://www.culture.gouv.fr/public/mistral/merimee_fr?ACTION=CHERCHER&FIELD_1=REF&VALUE_1=PA00078418
Usine Macerienne,10 avenue Louis Tirman,4.713,49.7626,http://www.culture.gouv.fr/public/mistral/merimee_fr?ACTION=CHERCHER&FIELD_1=REF&VALUE_1=PA08000014
Vieux Moulin,Square du Vieux moulin,4.722034,49.775706,http://www.culture.gouv.fr/public/mistral/merimee_fr?ACTION=CHERCHER&FIELD_1=REF&VALUE_1=PA00078419
Abbaye Saint-Loup,Rue de la Cité,4.0803,48.3008,http://www.culture.gouv.fr/public/mistral/merimee_fr?ACTION=CHERCHER&FIELD_1=REF&VALUE_1=PA00078248
Abbaye Saint-Martin-Aires,Rue Saint-Martin-ès-Aires,4.085037,48.302159,http://www.culture.gouv.fr/public/mistral/merimee_fr?ACTION=CHERCHER&FIELD_1=REF&VALUE_1=PA00078249
Basilique Saint-Urbain,Place Vernier,4.0767,48.2981,http://www.culture.gouv.fr/public/mistral/merimee_fr?ACTION=CHERCHER&FIELD_1=REF&VALUE_1=PA00078261
Cathedrale Saint-Pierre-Saint-Paul,Place Saint-Pierre,4.0814,48.3003,http://www.culture.gouv.fr/public/mistral/merimee_fr?ACTION=CHERCHER&FIELD_1=REF&VALUE_1=PA00078250
Chambre Commerce,"10, place Audiffred",4.071647,48.295839,http://www.culture.gouv.fr/public/mistral/merimee_fr?ACTION=CHERCHER&FIELD_1=REF&VALUE_1=PA00078253
Chapitre,"1, place Saint-Pierre",4.080179,48.299731,http://www.culture.gouv.fr/public/mistral/merimee_fr?ACTION=CHERCHER&FIELD_1=REF&VALUE_1=PA00078251
Cirque Municipal,Boulevard Gambetta,4.075263,48.300353,http://www.culture.gouv.fr/public/mistral/merimee_fr?ACTION=CHERCHER&FIELD_1=REF&VALUE_1=PA00078252
Eglise Madeleine,Rue de la Madeleine,4.071422,48.297677,http://www.culture.gouv.fr/public/mistral/merimee_fr?ACTION=CHERCHER&FIELD_1=REF&VALUE_1=PA00078254
Eglise Notre-Dame Trevois,"87, boulevard Jules-Guesde",4.084961,48.283743,http://www.culture.gouv.fr/public/mistral/merimee_fr?ACTION=CHERCHER&FIELD_1=REF&VALUE_1=PA10000012
Eglise Saint-Jean,"Rue Mignard
Place du Marché-au-Pain",4.073793,48.296535,http://www.culture.gouv.fr/public/mistral/merimee_fr?ACTION=CHERCHER&FIELD_1=REF&VALUE_1=PA00078255
Eglise Saint-Martin-Vignes,Rue de la Reine-Blanche,4.061454,48.305392,http://www.culture.gouv.fr/public/mistral/merimee_fr?ACTION=CHERCHER&FIELD_1=REF&VALUE_1=PA00078256
Eglise Saint-Nicolas,Boulevard Victor-Hugo,4.069485,48.293994,http://www.culture.gouv.fr/public/mistral/merimee_fr?ACTION=CHERCHER&FIELD_1=REF&VALUE_1=PA00078257
Eglise Saint-Nizier,Place Saint-,4.083492,48.301884,http://www.culture.gouv.fr/public/mistral/merimee_fr?ACTION=CHERCHER&FIELD_1=REF&VALUE_1=PA00078258
Eglise Saint-Pantaleon,Rue de Vauluisant,4.071811,48.294679,http://www.culture.gouv.fr/public/mistral/merimee_fr?ACTION=CHERCHER&FIELD_1=REF&VALUE_1=PA00078259
Eglise Saint-Remy,"Place Saint-Rémy
Quartier des Halles",4.0753,48.2993,http://www.culture.gouv.fr/public/mistral/merimee_fr?ACTION=CHERCHER&FIELD_1=REF&VALUE_1=PA00078260
Hospice Saint-Nicolas,"101bis, rue de la Cité",4.08185,48.301399,http://www.culture.gouv.fr/public/mistral/merimee_fr?ACTION=CHERCHER&FIELD_1=REF&VALUE_1=PA10000008
Hotel Autruy,"104, rue du Général-de-Gaulle",4.071652,48.298124,http://www.culture.gouv.fr/public/mistral/merimee_fr?ACTION=CHERCHER&FIELD_1=REF&VALUE_1=PA00078263
Hotel Chapelaines,"55, rue de Turenne",4.073447,48.293535,http://www.culture.gouv.fr/public/mistral/merimee_fr?ACTION=CHERCHER&FIELD_1=REF&VALUE_1=PA00078264
Hotel Deheurles,"34, rue Salengro",4.070738,48.295728,http://www.culture.gouv.fr/public/mistral/merimee_fr?ACTION=CHERCHER&FIELD_1=REF&VALUE_1=PA00078265
Hotel Marisy,Angle rue des Quinze-Vingts et rue Charbonnet,4.071532,48.296891,http://www.culture.gouv.fr/public/mistral/merimee_fr?ACTION=CHERCHER&FIELD_1=REF&VALUE_1=PA00078267
Hotel Mauroy,"7, rue de la Trinité",4.0733,48.2946,http://www.culture.gouv.fr/public/mistral/merimee_fr?ACTION=CHERCHER&FIELD_1=REF&VALUE_1=PA00078268
Hotel Petit Louvre,"2, rue de la Montée-Saint-Pierre
1 rue Boucherat
Rue Linard-Gonthier",4.0802,48.2991,http://www.culture.gouv.fr/public/mistral/merimee_fr?ACTION=CHERCHER&FIELD_1=REF&VALUE_1=PA00078269
Hotel Prefecture Aube,Place de la Libération,4.0783,48.2978,http://www.culture.gouv.fr/public/mistral/merimee_fr?ACTION=CHERCHER&FIELD_1=REF&VALUE_1=PA00078283
Hotel Ursins,"26, rue Champeaux",4.072677,48.296637,http://www.culture.gouv.fr/public/mistral/merimee_fr?ACTION=CHERCHER&FIELD_1=REF&VALUE_1=PA00078270
Hotel Vauluisant,"4, rue Vauluisant",4.0717,48.2945,http://www.culture.gouv.fr/public/mistral/merimee_fr?ACTION=CHERCHER&FIELD_1=REF&VALUE_1=PA00078271
Hotel Ville,Place Alexandre-Israël,4.074292,48.297406,http://www.culture.gouv.fr/public/mistral/merimee_fr?ACTION=CHERCHER&FIELD_1=REF&VALUE_1=PA00078272
Hotel-Dieu,"2, rue de la Cité
Quai des Comtes-de-Champagne",4.07869,48.299161,http://www.culture.gouv.fr/public/mistral/merimee_fr?ACTION=CHERCHER&FIELD_1=REF&VALUE_1=PA00078266
Immeuble,"111, rue Émile-Zola",4.0729,48.2955,http://www.culture.gouv.fr/public/mistral/merimee_fr?ACTION=CHERCHER&FIELD_1=REF&VALUE_1=PA10000013
Kiosque Musique,Rue Jules-Lebocey,4.071465,48.298746,http://www.culture.gouv.fr/public/mistral/merimee_fr?ACTION=CHERCHER&FIELD_1=REF&VALUE_1=PA00078273
Maison,"2, rue Molé
Rue Champeaux",4.073716,48.296781,http://www.culture.gouv.fr/public/mistral/merimee_fr?ACTION=CHERCHER&FIELD_1=REF&VALUE_1=PA00078277
Maison,"4, rue Molé
Rue Champeaux",4.073664,48.296745,http://www.culture.gouv.fr/public/mistral/merimee_fr?ACTION=CHERCHER&FIELD_1=REF&VALUE_1=PA00078278
Maison,"6, rue Molé
Rue Champeaux",4.073596,48.296714,http://www.culture.gouv.fr/public/mistral/merimee_fr?ACTION=CHERCHER&FIELD_1=REF&VALUE_1=PA00078279
Maison,"8, rue Molé
Rue Champeaux",4.073547,48.296679,http://www.culture.gouv.fr/public/mistral/merimee_fr?ACTION=CHERCHER&FIELD_1=REF&VALUE_1=PA00078280
Maison,"34, rue de la Monnaie",4.080257,48.299035,http://www.culture.gouv.fr/public/mistral/merimee_fr?ACTION=CHERCHER&FIELD_1=REF&VALUE_1=PA00078281
Maison Boulanger,"Rue Champeaux
Rue Paillot-de-Montabert",4.073274,48.29671,http://www.culture.gouv.fr/public/mistral/merimee_fr?ACTION=CHERCHER&FIELD_1=REF&VALUE_1=PA00078274
Maison Congregation Soeurs Providence,"21, rue des Terrasses",4.078607,48.292256,http://www.culture.gouv.fr/public/mistral/merimee_fr?ACTION=CHERCHER&FIELD_1=REF&VALUE_1=PA10000028
Maison Dauphin,"32, rue Kléber
2, rue Célestin-Philbois",4.083323,48.302632,http://www.culture.gouv.fr/public/mistral/merimee_fr?ACTION=CHERCHER&FIELD_1=REF&VALUE_1=PA00135309
Maison Election,"26, rue de la Monnaie",4.071017,48.295818,http://www.culture.gouv.fr/public/mistral/merimee_fr?ACTION=CHERCHER&FIELD_1=REF&VALUE_1=PA00078275
Maison Orfevre,"9, rue Champeaux
10, rue Molé",4.07342,48.296658,http://www.culture.gouv.fr/public/mistral/merimee_fr?ACTION=CHERCHER&FIELD_1=REF&VALUE_1=PA00078276
Monastere Visitation,"75, avenue Pierre-Brossolette",4.077612,48.290425,http://www.culture.gouv.fr/public/mistral/merimee_fr?ACTION=CHERCHER&FIELD_1=REF&VALUE_1=PA00078282
Musee Vauluisant,"4, rue Vauluisant",4.0717,48.2945,http://www.culture.gouv.fr/public/mistral/merimee_fr?ACTION=CHERCHER&FIELD_1=REF&VALUE_1=PA00078271
Palais Episcopal,Place Saint-Pierre,4.082373,48.300191,http://www.culture.gouv.fr/public/mistral/merimee_fr?ACTION=CHERCHER&FIELD_1=REF&VALUE_1=PA00078262
Abbaye Saint-Paul,"Sous-préfecture
1-2 Place Saint-Paul",5.3839,49.1631,http://www.culture.gouv.fr/public/mistral/merimee_fr?ACTION=CHERCHER&FIELD_1=REF&VALUE_1=PA00106655
Abbaye Saint-Vanne,Citadelle de Verdun,5.373396,49.159271,http://www.culture.gouv.fr/public/mistral/merimee_fr?ACTION=CHERCHER&FIELD_1=REF&VALUE_1=PA00106654
Cathedrale Notre-Dame,Place Monseigneur-Ginisty,5.3822,49.1594,http://www.culture.gouv.fr/public/mistral/merimee_fr?ACTION=CHERCHER&FIELD_1=REF&VALUE_1=PA00106656
Centre Mondial Paix,Place Monseigneur-Ginisty,5.3808,49.1589,http://www.culture.gouv.fr/public/mistral/merimee_fr?ACTION=CHERCHER&FIELD_1=REF&VALUE_1=PA00106660
Chapelle Institution Saint-Joseph,Rue Mautroté,5.38044,49.16018,http://www.culture.gouv.fr/public/mistral/merimee_fr?ACTION=CHERCHER&FIELD_1=REF&VALUE_1=PA55000037
College,6 Rue Saint-Paul,5.3847,49.1622,http://www.culture.gouv.fr/public/mistral/merimee_fr?ACTION=CHERCHER&FIELD_1=REF&VALUE_1=PA00106658
Citadelle Souterraine,"Place de la Roche
20 Av. du 5e RAP",5.3764,49.1579,http://www.culture.gouv.fr/public/mistral/merimee_fr?ACTION=CHERCHER&FIELD_1=REF&VALUE_1=PA00106657
Crypte Saint-Maur,27 Rue de la Paix,5.37799,49.16239,http://www.culture.gouv.fr/public/mistral/merimee_fr?ACTION=CHERCHER&FIELD_1=REF&VALUE_1=PA00106664
Enceinte Fortifiee,Rue du Grand Rempart (Verdun),5.3901,49.1593,http://www.culture.gouv.fr/public/mistral/merimee_fr?ACTION=CHERCHER&FIELD_1=REF&VALUE_1=PA00106659
Hotel Princerie,16 rue de la Belle-Vierge,5.3824,49.1612,http://www.culture.gouv.fr/public/mistral/merimee_fr?ACTION=CHERCHER&FIELD_1=REF&VALUE_1=PA00106661
Hotel Ville,11 rue Président-Poincaré,5.3865,49.1589,http://www.culture.gouv.fr/public/mistral/merimee_fr?ACTION=CHERCHER&FIELD_1=REF&VALUE_1=PA00106662
Immeuble Noguez,8 place Monseigneur-Ginisty,5.38222,49.15982,http://www.culture.gouv.fr/public/mistral/merimee_fr?ACTION=CHERCHER&FIELD_1=REF&VALUE_1=PA00106663
Maison Pape Jules-II,Place de la Libération,5.38343,49.16101,http://www.culture.gouv.fr/public/mistral/merimee_fr?ACTION=CHERCHER&FIELD_1=REF&VALUE_1=PA00106665
Monument Victoire Soldats,Place de la Libération,5.38439,49.16126,http://www.culture.gouv.fr/public/mistral/merimee_fr?ACTION=CHERCHER&FIELD_1=REF&VALUE_1=PA00106685
Pont-ecluse Saint-Amand,Rue du 61e Régiment d'Artillerie,5.3792,49.1576,http://www.culture.gouv.fr/public/mistral/merimee_fr?ACTION=CHERCHER&FIELD_1=REF&VALUE_1=PA00106666
Porte Chatel,Rue de la Porte-Châtel,5.3795,49.15985,http://www.culture.gouv.fr/public/mistral/merimee_fr?ACTION=CHERCHER&FIELD_1=REF&VALUE_1=PA00106667
Porte Chaussee,Rue Chaussée,5.3864,49.162,http://www.culture.gouv.fr/public/mistral/merimee_fr?ACTION=CHERCHER&FIELD_1=REF&VALUE_1=PA00106668
Porte Metz,Avenue d'Alsace-Lorraine,5.3926,49.1534,http://www.culture.gouv.fr/public/mistral/merimee_fr?ACTION=CHERCHER&FIELD_1=REF&VALUE_1=PA00106669
Synagogue,1 Impasse des Jacobins,5.38531,49.16326,http://www.culture.gouv.fr/public/mistral/merimee_fr?ACTION=CHERCHER&FIELD_1=REF&VALUE_1=PA00106670
Tour Islot,Rue du Grand Rempart,5.39,49.1593,http://www.culture.gouv.fr/public/mistral/merimee_fr?ACTION=CHERCHER&FIELD_1=REF&VALUE_1=PA00106671
Chateau Ducs Bar,6 rue François-de-Guise,5.1562,48.7717,http://www.culture.gouv.fr/public/mistral/merimee_fr?ACTION=CHERCHER&FIELD_1=REF&VALUE_1=PA00106461
Chateau Marbeaumont,74 rue Saint-Mihiel,5.1717,48.7738,http://www.culture.gouv.fr/public/mistral/merimee_fr?ACTION=CHERCHER&FIELD_1=REF&VALUE_1=PA00106462
College Gilles-Treves,Rue Gilles-de-Trèves,5.1554,48.7728,http://www.culture.gouv.fr/public/mistral/merimee_fr?ACTION=CHERCHER&FIELD_1=REF&VALUE_1=PA00106463
Eglise Notre-Dame,Rue Jeanne-d'Arc,5.1622,48.7765,http://www.culture.gouv.fr/public/mistral/merimee_fr?ACTION=CHERCHER&FIELD_1=REF&VALUE_1=PA00106464
Eglise Saint-Antoine,Rue Jean-Jacques-Rousseau,5.1595,48.773,http://www.culture.gouv.fr/public/mistral/merimee_fr?ACTION=CHERCHER&FIELD_1=REF&VALUE_1=PA00106465
Eglise Saint-Etienne,Place Saint-Pierre,5.1594,48.7682,http://www.culture.gouv.fr/public/mistral/merimee_fr?ACTION=CHERCHER&FIELD_1=REF&VALUE_1=PA00106466
Fontaine,Place de la Fontaine,5.158427,48.770289,http://www.culture.gouv.fr/public/mistral/merimee_fr?ACTION=CHERCHER&FIELD_1=REF&VALUE_1=PA00106467
Hotel Bessiere,47 rue des Ducs-de-Bar,5.1582,48.7688,http://www.culture.gouv.fr/public/mistral/merimee_fr?ACTION=CHERCHER&FIELD_1=REF&VALUE_1=PA00106476
Hotel Escale,41 rue des Ducs-de-Bar,5.1582,48.7691,http://www.culture.gouv.fr/public/mistral/merimee_fr?ACTION=CHERCHER&FIELD_1=REF&VALUE_1=PA00106475
Hotel Florainville,21 place Saint-Pierre,5.1589,48.7687,http://www.culture.gouv.fr/public/mistral/merimee_fr?ACTION=CHERCHER&FIELD_1=REF&VALUE_1=PA00106468
Hotel Marne,46 rue du Bourg,5.1569,48.7736,http://www.culture.gouv.fr/public/mistral/merimee_fr?ACTION=CHERCHER&FIELD_1=REF&VALUE_1=PA00106471
Hotel Particulier,"16 rue du Tribel
27bis rue de Polval",5.1606,48.768,http://www.culture.gouv.fr/public/mistral/merimee_fr?ACTION=CHERCHER&FIELD_1=REF&VALUE_1=PA55000034
Hotel Prefecture Meuse,"40, 42 rue du Bourg",5.1581,48.7739,http://www.culture.gouv.fr/public/mistral/merimee_fr?ACTION=CHERCHER&FIELD_1=REF&VALUE_1=PA00106491
Hotel Radouan,67 rue des Ducs-de-Bar,5.1584,48.7682,http://www.culture.gouv.fr/public/mistral/merimee_fr?ACTION=CHERCHER&FIELD_1=REF&VALUE_1=PA00106469
Hotel Salm,38 rue du Tribel,5.1593,48.7673,http://www.culture.gouv.fr/public/mistral/merimee_fr?ACTION=CHERCHER&FIELD_1=REF&VALUE_1=PA00106484
Immeuble,"51 rue du Bourg
34 rue du Coq",5.1574,48.7741,http://www.culture.gouv.fr/public/mistral/merimee_fr?ACTION=CHERCHER&FIELD_1=REF&VALUE_1=PA00106486
Immeuble,"10, 12 place de la Couronne",5.1553,48.7733,http://www.culture.gouv.fr/public/mistral/merimee_fr?ACTION=CHERCHER&FIELD_1=REF&VALUE_1=PA00106472
Immeuble,29 rue des Ducs-de-Bar,5.1582,48.7693,http://www.culture.gouv.fr/public/mistral/merimee_fr?ACTION=CHERCHER&FIELD_1=REF&VALUE_1=PA00106473
Immeuble,55 rue des Ducs-de-Bar,5.1583,48.7685,http://www.culture.gouv.fr/public/mistral/merimee_fr?ACTION=CHERCHER&FIELD_1=REF&VALUE_1=PA00106477
Immeuble,7 place de la Fontaine,5.158526,48.770451,http://www.culture.gouv.fr/public/mistral/merimee_fr?ACTION=CHERCHER&FIELD_1=REF&VALUE_1=PA00106478
Immeuble,22 rue Jean-Jacques-Rousseau,5.1588,48.7726,http://www.culture.gouv.fr/public/mistral/merimee_fr?ACTION=CHERCHER&FIELD_1=REF&VALUE_1=PA00106481
Immeuble,4 place Saint-Pierre,5.1592,48.7695,http://www.culture.gouv.fr/public/mistral/merimee_fr?ACTION=CHERCHER&FIELD_1=REF&VALUE_1=PA00106487
Immeuble,8 place Saint-Pierre,5.1592,48.7694,http://www.culture.gouv.fr/public/mistral/merimee_fr?ACTION=CHERCHER&FIELD_1=REF&VALUE_1=PA00106488
Immeuble,10 place Saint-Pierre,5.1593,48.7694,http://www.culture.gouv.fr/public/mistral/merimee_fr?ACTION=CHERCHER&FIELD_1=REF&VALUE_1=PA00106482
Immeuble,14 place Saint-Pierre,5.1593,48.7691,http://www.culture.gouv.fr/public/mistral/merimee_fr?ACTION=CHERCHER&FIELD_1=REF&VALUE_1=PA00106489
Immeuble,25 place Saint-Pierre,5.1589,48.7685,http://www.culture.gouv.fr/public/mistral/merimee_fr?ACTION=CHERCHER&FIELD_1=REF&VALUE_1=PA00106483
Immeuble,29 place Saint-Pierre,5.1591,48.7684,http://www.culture.gouv.fr/public/mistral/merimee_fr?ACTION=CHERCHER&FIELD_1=REF&VALUE_1=PA00106490
Maison,15 rue André-Maginot,5.16,48.7745,http://www.culture.gouv.fr/public/mistral/merimee_fr?ACTION=CHERCHER&FIELD_1=REF&VALUE_1=PA55000019
Maison,49 rue du Bourg,5.1575,48.7741,http://www.culture.gouv.fr/public/mistral/merimee_fr?ACTION=CHERCHER&FIELD_1=REF&VALUE_1=PA00106485
Maison,3-3 bis place de la Halle,5.1587,48.7694,http://www.culture.gouv.fr/public/mistral/merimee_fr?ACTION=CHERCHER&FIELD_1=REF&VALUE_1=PA00106479
Maison Deux Barbeaux,26 rue du Bourg,5.1585,48.7743,http://www.culture.gouv.fr/public/mistral/merimee_fr?ACTION=CHERCHER&FIELD_1=REF&VALUE_1=PA00106470
Maison Gabbe,37 rue des Ducs-de-Bar,5.1582,48.7691,http://www.culture.gouv.fr/public/mistral/merimee_fr?ACTION=CHERCHER&FIELD_1=REF&VALUE_1=PA00106474
Maison Morel,12 place de la Halle,5.159039,48.769658,http://www.culture.gouv.fr/public/mistral/merimee_fr?ACTION=CHERCHER&FIELD_1=REF&VALUE_1=PA00106480
Synagogue,16 quai Sadi Carnot,5.1639,48.7735,http://www.culture.gouv.fr/public/mistral/merimee_fr?ACTION=CHERCHER&FIELD_1=REF&VALUE_1=PA55000041
Tour Heyblot,45 rue des Ducs-de-Bar,5.15773,48.768816,http://www.culture.gouv.fr/public/mistral/merimee_fr?ACTION=CHERCHER&FIELD_1=REF&VALUE_1=PA00106492
Tour Horloge,Place de la Tour,5.1581,48.7711,http://www.culture.gouv.fr/public/mistral/merimee_fr?ACTION=CHERCHER&FIELD_1=REF&VALUE_1=PA00106493
Basilique Saint-Maurice,Rue Pellet,6.45083,48.17417,http://www.culture.gouv.fr/public/mistral/merimee_fr?ACTION=CHERCHER&FIELD_1=REF&VALUE_1=PA00107140
,"Rue de Nancy
Impasse des Blanchisseuses",6.4458005,48.1809128,http://www.culture.gouv.fr/public/mistral/merimee_fr?ACTION=CHERCHER&FIELD_1=REF&VALUE_1=PA00107328
Chapelle Saint-Michel,Rue Émile-Zola,6.4624031,48.1804087,http://www.culture.gouv.fr/public/mistral/merimee_fr?ACTION=CHERCHER&FIELD_1=REF&VALUE_1=PA00107346
Chateau,Parc du Château,6.4556,48.1753,http://www.culture.gouv.fr/public/mistral/merimee_fr?ACTION=CHERCHER&FIELD_1=REF&VALUE_1=PA00107139
Eglise Notre-Dame-Cierge,Avenue De-Lattre-de-Tassigny,6.44367,48.17789,http://www.culture.gouv.fr/public/mistral/merimee_fr?ACTION=CHERCHER&FIELD_1=REF&VALUE_1=PA88000047
Imagerie,"42bis quai de Dogneville
Rue de Bellevue",6.44636,48.18403,http://www.culture.gouv.fr/public/mistral/merimee_fr?ACTION=CHERCHER&FIELD_1=REF&VALUE_1=PA00107141
Immeuble,30bis rue Thiers,6.4512313,48.1693597,http://www.culture.gouv.fr/public/mistral/merimee_fr?ACTION=CHERCHER&FIELD_1=REF&VALUE_1=PA00107142
Maison,"1 place des Vosges
15 rue du 170e-RI",6.449913,48.1748305,http://www.culture.gouv.fr/public/mistral/merimee_fr?ACTION=CHERCHER&FIELD_1=REF&VALUE_1=PA00107143
Maison,2 place des Vosges,6.4498,48.1747,http://www.culture.gouv.fr/public/mistral/merimee_fr?ACTION=CHERCHER&FIELD_1=REF&VALUE_1=PA00107144
Maison,3 place des Vosges,6.4499407,48.1748591,http://www.culture.gouv.fr/public/mistral/merimee_fr?ACTION=CHERCHER&FIELD_1=REF&VALUE_1=PA00107145
Maison,4 place des Vosges,6.4497,48.1746,http://www.culture.gouv.fr/public/mistral/merimee_fr?ACTION=CHERCHER&FIELD_1=REF&VALUE_1=PA00107146
Maison,6 place des Vosges,6.4497,48.1746,http://www.culture.gouv.fr/public/mistral/merimee_fr?ACTION=CHERCHER&FIELD_1=REF&VALUE_1=PA00107148
Maison,7 place des Vosges,6.4499568,48.1749038,http://www.culture.gouv.fr/public/mistral/merimee_fr?ACTION=CHERCHER&FIELD_1=REF&VALUE_1=PA00107149
Maison,8 place des Vosges,6.449793,48.174513,http://www.culture.gouv.fr/public/mistral/merimee_fr?ACTION=CHERCHER&FIELD_1=REF&VALUE_1=PA00107150
Maison,9 place des Vosges,6.4504061,48.1749968,http://www.culture.gouv.fr/public/mistral/merimee_fr?ACTION=CHERCHER&FIELD_1=REF&VALUE_1=PA00107151
Maison,10 place des Vosges,6.449841,48.174476,http://www.culture.gouv.fr/public/mistral/merimee_fr?ACTION=CHERCHER&FIELD_1=REF&VALUE_1=PA00107152
Maison,11 place des Vosges,6.450436,48.174914,http://www.culture.gouv.fr/public/mistral/merimee_fr?ACTION=CHERCHER&FIELD_1=REF&VALUE_1=PA00107153
Maison,12 place des Vosges,6.449895,48.174431,http://www.culture.gouv.fr/public/mistral/merimee_fr?ACTION=CHERCHER&FIELD_1=REF&VALUE_1=PA00107154
Maison,13-15 place des Vosges,6.450541,48.174851,http://www.culture.gouv.fr/public/mistral/merimee_fr?ACTION=CHERCHER&FIELD_1=REF&VALUE_1=PA00107155
Maison,14 place des Vosges,6.4499037,48.1743503,http://www.culture.gouv.fr/public/mistral/merimee_fr?ACTION=CHERCHER&FIELD_1=REF&VALUE_1=PA00107156
Maison,16 place des Vosges,6.45001,48.174322,http://www.culture.gouv.fr/public/mistral/merimee_fr?ACTION=CHERCHER&FIELD_1=REF&VALUE_1=PA00107157
Maison,17-19-21 place des Vosges,6.4505936,48.1746324,http://www.culture.gouv.fr/public/mistral/merimee_fr?ACTION=CHERCHER&FIELD_1=REF&VALUE_1=PA00107158
Maison,18 place des Vosges,6.450152,48.174388,http://www.culture.gouv.fr/public/mistral/merimee_fr?ACTION=CHERCHER&FIELD_1=REF&VALUE_1=PA00107159
Maison,20 place des Vosges,6.4502389,48.1744142,http://www.culture.gouv.fr/public/mistral/merimee_fr?ACTION=CHERCHER&FIELD_1=REF&VALUE_1=PA00107160
Maison,22 place des Vosges,6.4503262,48.1744761,http://www.culture.gouv.fr/public/mistral/merimee_fr?ACTION=CHERCHER&FIELD_1=REF&VALUE_1=PA00107161
Maison,23 place des Vosges,6.450447,48.174578,http://www.culture.gouv.fr/public/mistral/merimee_fr?ACTION=CHERCHER&FIELD_1=REF&VALUE_1=PA00107162
Maison Bailli,5 place des Vosges,6.450053,48.174862,http://www.culture.gouv.fr/public/mistral/merimee_fr?ACTION=CHERCHER&FIELD_1=REF&VALUE_1=PA00107147
Arc Here,rue Héré,6.182674,48.694416,http://www.culture.gouv.fr/public/mistral/merimee_fr?ACTION=CHERCHER&FIELD_1=REF&VALUE_1=PA00106099
Banque SNVB,4 place André-Maginot,6.177306,48.689889,http://www.culture.gouv.fr/public/mistral/merimee_fr?ACTION=CHERCHER&FIELD_1=REF&VALUE_1=PA00132624
Basilique Saint-Epvre,place Saint-Epvre et place du Colonel-Fabien,6.18,48.696,http://www.culture.gouv.fr/public/mistral/merimee_fr?ACTION=CHERCHER&FIELD_1=REF&VALUE_1=PA00106109
Bastion Haussonville,1 rue Gustave-Simon,6.1819,48.6938,http://www.culture.gouv.fr/public/mistral/merimee_fr?ACTION=CHERCHER&FIELD_1=REF&VALUE_1=PA00135698
Brasserie Excelsior,"1 rue Mazagran
rue Henri-Poincaré",6.175694,48.690833,http://www.culture.gouv.fr/public/mistral/merimee_fr?ACTION=CHERCHER&FIELD_1=REF&VALUE_1=PA00106114
Caserne Thiry,rue Sainte-Catherine,6.1885,48.6958,http://www.culture.gouv.fr/public/mistral/merimee_fr?ACTION=CHERCHER&FIELD_1=REF&VALUE_1=PA00106101
Cathedrale Notre-Dame-Annonciation,Place Monseigneur-Ruch,6.1863,48.6913,http://www.culture.gouv.fr/public/mistral/merimee_fr?ACTION=CHERCHER&FIELD_1=REF&VALUE_1=PA00106102
Commanderie Saint-Jean-Vieil-Aitre,84 impasse Clérin (84 avenue Foch),6.1674,48.6866,http://www.culture.gouv.fr/public/mistral/merimee_fr?ACTION=CHERCHER&FIELD_1=REF&VALUE_1=PA00106104
Cour Administrative Appel,"4, 6 rue du Haut-Bourgeois",6.17732,48.698173,http://www.culture.gouv.fr/public/mistral/merimee_fr?ACTION=CHERCHER&FIELD_1=REF&VALUE_1=PA00106116
Croix-Gagnee,Rue de la Croix-Gagnée,6.158089,48.699708,http://www.culture.gouv.fr/public/mistral/merimee_fr?ACTION=CHERCHER&FIELD_1=REF&VALUE_1=PA00106107
Eglise Notre-Dame-Bonsecours,254 avenue de Strasbourg,6.1994,48.6767,http://www.culture.gouv.fr/public/mistral/merimee_fr?ACTION=CHERCHER&FIELD_1=REF&VALUE_1=PA00106108
Eglise Saint-Sebastien,Place Charles III,6.181,48.689,http://www.culture.gouv.fr/public/mistral/merimee_fr?ACTION=CHERCHER&FIELD_1=REF&VALUE_1=PA00106110
Etablissement Emile Galle,86 boulevard Jean-Jaurès,6.178935,48.679925,http://www.culture.gouv.fr/public/mistral/merimee_fr?ACTION=CHERCHER&FIELD_1=REF&VALUE_1=PA54000057
Gendarmerie,"7 rue des Cordeliers
rue Jacquot",6.180443,48.698347,http://www.culture.gouv.fr/public/mistral/merimee_fr?ACTION=CHERCHER&FIELD_1=REF&VALUE_1=PA54000065
Hotel Ferraris,29 rue du Haut-Bourgeois,6.176944,48.697638,http://www.culture.gouv.fr/public/mistral/merimee_fr?ACTION=CHERCHER&FIELD_1=REF&VALUE_1=PA00106115
Hotel Gellenoncourt,4 rue des Loups,6.177353,48.69698,http://www.culture.gouv.fr/public/mistral/merimee_fr?ACTION=CHERCHER&FIELD_1=REF&VALUE_1=PA00106237
Hotel Haussonville,"9, 9bis rue Trouillet",6.1782,48.6965,http://www.culture.gouv.fr/public/mistral/merimee_fr?ACTION=CHERCHER&FIELD_1=REF&VALUE_1=PA00106117
Hotel Loups,"1, 1bis rue des Loups",6.176722,48.697028,http://www.culture.gouv.fr/public/mistral/merimee_fr?ACTION=CHERCHER&FIELD_1=REF&VALUE_1=PA00106236
Hotel Mission Royale,"avenue du Docteur-Heydenreich
94, 96 avenue Maréchal-de-Lattre-de-Tassigny",6.19137,48.682323,http://www.culture.gouv.fr/public/mistral/merimee_fr?ACTION=CHERCHER&FIELD_1=REF&VALUE_1=PA00106303
Hotel Monnaie,1 rue de la Monnaie,6.179603,48.694011,http://www.culture.gouv.fr/public/mistral/merimee_fr?ACTION=CHERCHER&FIELD_1=REF&VALUE_1=PA00106254
Place Alliance,Place d'Alliance,6.186311,48.693781,http://www.culture.gouv.fr/public/mistral/merimee_fr?ACTION=CHERCHER&FIELD_1=REF&VALUE_1=PA00106309
Immeuble,"2 place d'Alliance
8 rue Lyautey",6.18571,48.6938,http://www.culture.gouv.fr/public/mistral/merimee_fr?ACTION=CHERCHER&FIELD_1=REF&VALUE_1=PA00106129
Immeuble,4 place d'Alliance,6.185904,48.693577,http://www.culture.gouv.fr/public/mistral/merimee_fr?ACTION=CHERCHER&FIELD_1=REF&VALUE_1=PA00106130
Immeuble,"6 place d'Alliance
Rue Pierre-Fourier",6.185968,48.693453,http://www.culture.gouv.fr/public/mistral/merimee_fr?ACTION=CHERCHER&FIELD_1=REF&VALUE_1=PA00106131
Hotel Alsace,8 place d'Alliance,6.186767,48.693946,http://www.culture.gouv.fr/public/mistral/merimee_fr?ACTION=CHERCHER&FIELD_1=REF&VALUE_1=PA00106111
Immeuble,"7, 9, 11 place de l'Arsenal",6.177535,48.696697,http://www.culture.gouv.fr/public/mistral/merimee_fr?ACTION=CHERCHER&FIELD_1=REF&VALUE_1=PA00106132
Maison Geschwindenhamer,6ter quai de la Bataille,6.186311,48.681402,http://www.culture.gouv.fr/public/mistral/merimee_fr?ACTION=CHERCHER&FIELD_1=REF&VALUE_1=PA00132625
Maison Jeune,30 rue du Sergent-Blandan,6.165926,48.680871,http://www.culture.gouv.fr/public/mistral/merimee_fr?ACTION=CHERCHER&FIELD_1=REF&VALUE_1=PA00106302
Parc Corbin,36 rue du Sergent-Blandan,6.165897,48.680339,http://www.culture.gouv.fr/public/mistral/merimee_fr?ACTION=CHERCHER&FIELD_1=REF&VALUE_1=PA54000010
Immeuble,55 rue de Boudonville,6.16624,48.698108,http://www.culture.gouv.fr/public/mistral/merimee_fr?ACTION=CHERCHER&FIELD_1=REF&VALUE_1=PA00106133
Conciergerie Saurupt,2 rue des Brice,6.181498,48.679931,http://www.culture.gouv.fr/public/mistral/merimee_fr?ACTION=CHERCHER&FIELD_1=REF&VALUE_1=PA00132626
Glycines,5 rue des Brice,6.182222,48.679444,http://www.culture.gouv.fr/public/mistral/merimee_fr?ACTION=CHERCHER&FIELD_1=REF&VALUE_1=PA00132627
Immeuble,2 rue Callot,6.181459,48.694732,http://www.culture.gouv.fr/public/mistral/merimee_fr?ACTION=CHERCHER&FIELD_1=REF&VALUE_1=PA00106134
Immeuble,8 rue Callot,6.180711,48.694485,http://www.culture.gouv.fr/public/mistral/merimee_fr?ACTION=CHERCHER&FIELD_1=REF&VALUE_1=PA00106135
Place Carriere,place de la Carrière,6.1817,48.6958,http://www.culture.gouv.fr/public/mistral/merimee_fr?ACTION=CHERCHER&FIELD_1=REF&VALUE_1=PA00106099
Place Carriere,,6.181703,48.69585,http://www.culture.gouv.fr/public/mistral/merimee_fr?ACTION=CHERCHER&FIELD_1=REF&VALUE_1=PA00106310
Immeuble,1 place de la Carrière,6.182115,48.694532,http://www.culture.gouv.fr/public/mistral/merimee_fr?ACTION=CHERCHER&FIELD_1=REF&VALUE_1=PA00106136
Hotel Beauvau-Craon,2 place de la Carrière,6.1831,48.695,http://www.culture.gouv.fr/public/mistral/merimee_fr?ACTION=CHERCHER&FIELD_1=REF&VALUE_1=PA00106113
Immeuble,3 place de la Carrière,6.182104,48.694586,http://www.culture.gouv.fr/public/mistral/merimee_fr?ACTION=CHERCHER&FIELD_1=REF&VALUE_1=PA00106137
Immeuble,4 place de la Carrière,6.182576,48.695226,http://www.culture.gouv.fr/public/mistral/merimee_fr?ACTION=CHERCHER&FIELD_1=REF&VALUE_1=PA00106138
Bourse Marchands,5 place de la Carrière,6.182006,48.694714,http://www.culture.gouv.fr/public/mistral/merimee_fr?ACTION=CHERCHER&FIELD_1=REF&VALUE_1=PA00106100
Immeuble,6 place de la Carrière,6.182489,48.695346,http://www.culture.gouv.fr/public/mistral/merimee_fr?ACTION=CHERCHER&FIELD_1=REF&VALUE_1=PA00106139
Immeuble,7 place de la Carrière,6.18191,48.694825,http://www.culture.gouv.fr/public/mistral/merimee_fr?ACTION=CHERCHER&FIELD_1=REF&VALUE_1=PA00106140
Immeuble,8 place de la Carrière,6.182383,48.69562,http://www.culture.gouv.fr/public/mistral/merimee_fr?ACTION=CHERCHER&FIELD_1=REF&VALUE_1=PA00106141
Immeuble,9 place de la Carrière,6.181878,48.694879,http://www.culture.gouv.fr/public/mistral/merimee_fr?ACTION=CHERCHER&FIELD_1=REF&VALUE_1=PA00106142
Immeuble,10 place de la Carrière,6.182588,48.695542,http://www.culture.gouv.fr/public/mistral/merimee_fr?ACTION=CHERCHER&FIELD_1=REF&VALUE_1=PA00106143
Immeuble,11 place de la Carrière,6.181852,48.694917,http://www.culture.gouv.fr/public/mistral/merimee_fr?ACTION=CHERCHER&FIELD_1=REF&VALUE_1=PA00106144
Immeuble,12 place de la Carrière,6.182481,48.695627,http://www.culture.gouv.fr/public/mistral/merimee_fr?ACTION=CHERCHER&FIELD_1=REF&VALUE_1=PA00106145
Immeuble,13 place de la Carrière,6.181825,48.694959,http://www.culture.gouv.fr/public/mistral/merimee_fr?ACTION=CHERCHER&FIELD_1=REF&VALUE_1=PA00106146
Immeuble,14 place de la Carrière,6.182395,48.695734,http://www.culture.gouv.fr/public/mistral/merimee_fr?ACTION=CHERCHER&FIELD_1=REF&VALUE_1=PA00106147
Immeuble,15 place de la Carrière,6.181793,48.695001,http://www.culture.gouv.fr/public/mistral/merimee_fr?ACTION=CHERCHER&FIELD_1=REF&VALUE_1=PA00106148
Immeuble,16 place de la Carrière,6.18217,48.695888,http://www.culture.gouv.fr/public/mistral/merimee_fr?ACTION=CHERCHER&FIELD_1=REF&VALUE_1=PA00106149
Immeuble,17 place de la Carrière,6.181768,48.69504,http://www.culture.gouv.fr/public/mistral/merimee_fr?ACTION=CHERCHER&FIELD_1=REF&VALUE_1=PA00106150
Immeuble,18 place de la Carrière,6.182079,48.695966,http://www.culture.gouv.fr/public/mistral/merimee_fr?ACTION=CHERCHER&FIELD_1=REF&VALUE_1=PA00106151
Immeuble,19 place de la Carrière,6.181742,48.695079,http://www.culture.gouv.fr/public/mistral/merimee_fr?ACTION=CHERCHER&FIELD_1=REF&VALUE_1=PA00106152
Immeuble,20 place de la Carrière,6.182025,48.69604,http://www.culture.gouv.fr/public/mistral/merimee_fr?ACTION=CHERCHER&FIELD_1=REF&VALUE_1=PA00106153
Immeuble,21 place de la Carrière,6.181652,48.695208,http://www.culture.gouv.fr/public/mistral/merimee_fr?ACTION=CHERCHER&FIELD_1=REF&VALUE_1=PA00106154
Immeuble,22 place de la Carrière,6.181985,48.696098,http://www.culture.gouv.fr/public/mistral/merimee_fr?ACTION=CHERCHER&FIELD_1=REF&VALUE_1=PA00106155
Immeuble,23 place de la Carrière,6.181591,48.695297,http://www.culture.gouv.fr/public/mistral/merimee_fr?ACTION=CHERCHER&FIELD_1=REF&VALUE_1=PA00106156
Immeuble,24 place de la Carrière,6.181939,48.696169,http://www.culture.gouv.fr/public/mistral/merimee_fr?ACTION=CHERCHER&FIELD_1=REF&VALUE_1=PA00106157
Immeuble,25 place de la Carrière,6.181558,48.695343,http://www.culture.gouv.fr/public/mistral/merimee_fr?ACTION=CHERCHER&FIELD_1=REF&VALUE_1=PA00106158
Immeuble,26 place de la Carrière,6.181891,48.696245,http://www.culture.gouv.fr/public/mistral/merimee_fr?ACTION=CHERCHER&FIELD_1=REF&VALUE_1=PA00106159
Immeuble,27 place de la Carrière,6.181459,48.695488,http://www.culture.gouv.fr/public/mistral/merimee_fr?ACTION=CHERCHER&FIELD_1=REF&VALUE_1=PA00106160
Immeuble,28 place de la Carrière,6.181851,48.696305,http://www.culture.gouv.fr/public/mistral/merimee_fr?ACTION=CHERCHER&FIELD_1=REF&VALUE_1=PA00106161
Immeuble,29 place de la Carrière,6.181344,48.695665,http://www.culture.gouv.fr/public/mistral/merimee_fr?ACTION=CHERCHER&FIELD_1=REF&VALUE_1=PA00106162
Immeuble,30 place de la Carrière,6.181808,48.696362,http://www.culture.gouv.fr/public/mistral/merimee_fr?ACTION=CHERCHER&FIELD_1=REF&VALUE_1=PA00106163
Immeuble,31 place de la Carrière,6.181302,48.695726,http://www.culture.gouv.fr/public/mistral/merimee_fr?ACTION=CHERCHER&FIELD_1=REF&VALUE_1=PA00106164
Immeuble,32 place de la Carrière,6.181765,48.696424,http://www.culture.gouv.fr/public/mistral/merimee_fr?ACTION=CHERCHER&FIELD_1=REF&VALUE_1=PA00106165
Immeuble,33 place de la Carrière,6.181263,48.695781,http://www.culture.gouv.fr/public/mistral/merimee_fr?ACTION=CHERCHER&FIELD_1=REF&VALUE_1=PA00106166
Immeuble,34 place de la Carrière,6.181725,48.696484,http://www.culture.gouv.fr/public/mistral/merimee_fr?ACTION=CHERCHER&FIELD_1=REF&VALUE_1=PA00106167
Immeuble,35 place de la Carrière,6.181165,48.695926,http://www.culture.gouv.fr/public/mistral/merimee_fr?ACTION=CHERCHER&FIELD_1=REF&VALUE_1=PA00106168
Immeuble,36 place de la Carrière,6.181684,48.696544,http://www.culture.gouv.fr/public/mistral/merimee_fr?ACTION=CHERCHER&FIELD_1=REF&VALUE_1=PA00106169
Immeuble,37 place de la Carrière,6.181118,48.695989,http://www.culture.gouv.fr/public/mistral/merimee_fr?ACTION=CHERCHER&FIELD_1=REF&VALUE_1=PA00106170
Hotel Morvilliers,38 place de la Carrière,6.181628,48.69666,http://www.culture.gouv.fr/public/mistral/merimee_fr?ACTION=CHERCHER&FIELD_1=REF&VALUE_1=PA00106171
Immeuble,39 place de la Carrière,6.181078,48.696044,http://www.culture.gouv.fr/public/mistral/merimee_fr?ACTION=CHERCHER&FIELD_1=REF&VALUE_1=PA00106172
Immeuble,41 place de la Carrière,6.181065,48.69607,http://www.culture.gouv.fr/public/mistral/merimee_fr?ACTION=CHERCHER&FIELD_1=REF&VALUE_1=PA00106173
Immeuble,43 place de la Carrière,6.181037,48.696108,http://www.culture.gouv.fr/public/mistral/merimee_fr?ACTION=CHERCHER&FIELD_1=REF&VALUE_1=PA00106174
Immeuble,45 place de la Carrière,6.180935,48.696247,http://www.culture.gouv.fr/public/mistral/merimee_fr?ACTION=CHERCHER&FIELD_1=REF&VALUE_1=PA00106175
Immeuble,47 place de la Carrière,6.180882,48.696322,http://www.culture.gouv.fr/public/mistral/merimee_fr?ACTION=CHERCHER&FIELD_1=REF&VALUE_1=PA00106176
Hotel Here,"49 place de la Carrière
60 Grande-Rue",6.180781,48.696438,http://www.culture.gouv.fr/public/mistral/merimee_fr?ACTION=CHERCHER&FIELD_1=REF&VALUE_1=PA00106306
Palais Gouvernement,Hémicycle du Général De Gaulle,6.1809,48.697,http://www.culture.gouv.fr/public/mistral/merimee_fr?ACTION=CHERCHER&FIELD_1=REF&VALUE_1=PA00106305
Maison Houot,7 rue de Chanzy,6.178333,48.689972,http://www.culture.gouv.fr/public/mistral/merimee_fr?ACTION=CHERCHER&FIELD_1=REF&VALUE_1=PA00106177
Banque Charles Renauld,"9 rue de Chanzy
58 rue Saint-Jean",6.178611,48.689722,http://www.culture.gouv.fr/public/mistral/merimee_fr?ACTION=CHERCHER&FIELD_1=REF&VALUE_1=PA00106178
Immeuble,14 rue de la Charité,6.178635,48.695677,http://www.culture.gouv.fr/public/mistral/merimee_fr?ACTION=CHERCHER&FIELD_1=REF&VALUE_1=PA00106179
Hotel Lenoncourt,18 rue de la Charité,6.178452,48.69559,http://www.culture.gouv.fr/public/mistral/merimee_fr?ACTION=CHERCHER&FIELD_1=REF&VALUE_1=PA00106180
Maison Gaudin,97 rue Charles III,6.190444,48.688638,http://www.culture.gouv.fr/public/mistral/merimee_fr?ACTION=CHERCHER&FIELD_1=REF&VALUE_1=PA00106182
Immeuble Weissenburger,1 boulevard Charles V,6.174933,48.698387,http://www.culture.gouv.fr/public/mistral/merimee_fr?ACTION=CHERCHER&FIELD_1=REF&VALUE_1=PA00106181
Hotel Lillebonne,14 rue du Cheval-Blanc,6.178302,48.695259,http://www.culture.gouv.fr/public/mistral/merimee_fr?ACTION=CHERCHER&FIELD_1=REF&VALUE_1=PA00106183
Maison Schott,6 quai Choiseul,6.168874,48.701326,http://www.culture.gouv.fr/public/mistral/merimee_fr?ACTION=CHERCHER&FIELD_1=REF&VALUE_1=PA00132628
Villa Lang,"1 boulevard Georges-Clemenceau, Saurupt",6.180417,48.678667,http://www.culture.gouv.fr/public/mistral/merimee_fr?ACTION=CHERCHER&FIELD_1=REF&VALUE_1=PA00132636
Immeuble Georges Biet,22 rue de la Commanderie,6.1714,48.6867,http://www.culture.gouv.fr/public/mistral/merimee_fr?ACTION=CHERCHER&FIELD_1=REF&VALUE_1=PA00106187
Pharmacie Jacques,"33 rue de la Commanderie
55 rue Jeanne-d'Arc",6.171454,48.686601,http://www.culture.gouv.fr/public/mistral/merimee_fr?ACTION=CHERCHER&FIELD_1=REF&VALUE_1=PA00106188
Immeuble,4 rue des Dominicains,6.182816,48.692749,http://www.culture.gouv.fr/public/mistral/merimee_fr?ACTION=CHERCHER&FIELD_1=REF&VALUE_1=PA00132630
Maison Adam,57 rue des Dominicains,6.183946,48.691543,http://www.culture.gouv.fr/public/mistral/merimee_fr?ACTION=CHERCHER&FIELD_1=REF&VALUE_1=PA00106295
Hotel Raigecourt,78 place du Colonel-Driant,6.187529,48.691924,http://www.culture.gouv.fr/public/mistral/merimee_fr?ACTION=CHERCHER&FIELD_1=REF&VALUE_1=PA00106189
Maison Peuple,2 rue Drouin,6.1882,48.6918,http://www.culture.gouv.fr/public/mistral/merimee_fr?ACTION=CHERCHER&FIELD_1=REF&VALUE_1=PA00106442
Immeuble,1 rue du Duc-Antoine,6.180531,48.695757,http://www.culture.gouv.fr/public/mistral/merimee_fr?ACTION=CHERCHER&FIELD_1=REF&VALUE_1=PA00106190
Hotel Ligneville,23 Grande-Rue,6.178729,48.697483,http://www.culture.gouv.fr/public/mistral/merimee_fr?ACTION=CHERCHER&FIELD_1=REF&VALUE_1=PA00106191
Hotel Ludres,11 place du Colonel-Fabien,6.179456,48.695128,http://www.culture.gouv.fr/public/mistral/merimee_fr?ACTION=CHERCHER&FIELD_1=REF&VALUE_1=PA00106120
Immeuble,12 place du Colonel-Fabien,6.180215,48.695142,http://www.culture.gouv.fr/public/mistral/merimee_fr?ACTION=CHERCHER&FIELD_1=REF&VALUE_1=PA00106185
Immeuble,19 place du Colonel-Fabien,6.179162,48.695622,http://www.culture.gouv.fr/public/mistral/merimee_fr?ACTION=CHERCHER&FIELD_1=REF&VALUE_1=PA00106186
Maison,24 rue Félix-Faure,6.16594,48.678219,http://www.culture.gouv.fr/public/mistral/merimee_fr?ACTION=CHERCHER&FIELD_1=REF&VALUE_1=PA00132631
Maison,25 rue Félix-Faure,6.166077,48.678037,http://www.culture.gouv.fr/public/mistral/merimee_fr?ACTION=CHERCHER&FIELD_1=REF&VALUE_1=PA00132632
Maison,26 rue Félix-Faure,6.165853,48.678192,http://www.culture.gouv.fr/public/mistral/merimee_fr?ACTION=CHERCHER&FIELD_1=REF&VALUE_1=PA00132633
Maison,28 rue Félix-Faure,6.165782,48.67817,http://www.culture.gouv.fr/public/mistral/merimee_fr?ACTION=CHERCHER&FIELD_1=REF&VALUE_1=PA00132634
Maison,30 rue Félix-Faure,6.165711,48.678149,http://www.culture.gouv.fr/public/mistral/merimee_fr?ACTION=CHERCHER&FIELD_1=REF&VALUE_1=PA00132635
Maison Docteur Paul Jacques,"41 avenue Foch
37 rue Jeanne-d'Arc",6.1709,48.6875,http://www.culture.gouv.fr/public/mistral/merimee_fr?ACTION=CHERCHER&FIELD_1=REF&VALUE_1=PA00106192
Maison Loppinet,45 avenue Foch,6.170422,48.687384,http://www.culture.gouv.fr/public/mistral/merimee_fr?ACTION=CHERCHER&FIELD_1=REF&VALUE_1=PA00106193
Immeuble Lombard,69 avenue Foch,6.168008,48.686536,http://www.culture.gouv.fr/public/mistral/merimee_fr?ACTION=CHERCHER&FIELD_1=REF&VALUE_1=PA00106194
Immeuble France-Lanord,71 avenue Foch,6.167893,48.686438,http://www.culture.gouv.fr/public/mistral/merimee_fr?ACTION=CHERCHER&FIELD_1=REF&VALUE_1=PA00106195
Immeuble,5 rue du Four,6.183908,48.687495,http://www.culture.gouv.fr/public/mistral/merimee_fr?ACTION=CHERCHER&FIELD_1=REF&VALUE_1=PA00106196
Immeuble,"1 rue Girardet
place d'Alliance",6.186601,48.693381,http://www.culture.gouv.fr/public/mistral/merimee_fr?ACTION=CHERCHER&FIELD_1=REF&VALUE_1=PA00106197
Immeuble,2 rue Girardet,6.186408,48.693351,http://www.culture.gouv.fr/public/mistral/merimee_fr?ACTION=CHERCHER&FIELD_1=REF&VALUE_1=PA00106198
Immeuble,2 bis rue Girardet,6.186601,48.693381,http://www.culture.gouv.fr/public/mistral/merimee_fr?ACTION=CHERCHER&FIELD_1=REF&VALUE_1=PA54000061
Immeuble,3 rue Girardet,6.187218,48.693823,http://www.culture.gouv.fr/public/mistral/merimee_fr?ACTION=CHERCHER&FIELD_1=REF&VALUE_1=PA54000062
Immeuble,4 rue Girardet,6.186829,48.693446,http://www.culture.gouv.fr/public/mistral/merimee_fr?ACTION=CHERCHER&FIELD_1=REF&VALUE_1=PA54000063
Immeuble,"6, 8, 10, 12, 14, 16, 18 rue Girardet",6.187454,48.693632,http://www.culture.gouv.fr/public/mistral/merimee_fr?ACTION=CHERCHER&FIELD_1=REF&VALUE_1=PA00106199
Maison Medard Chuppin,7 Grande-Rue,6.181499,48.694677,http://www.culture.gouv.fr/public/mistral/merimee_fr?ACTION=CHERCHER&FIELD_1=REF&VALUE_1=PA00106200
Hotel Rogeville,11 Grande-Rue,6.181416,48.694916,http://www.culture.gouv.fr/public/mistral/merimee_fr?ACTION=CHERCHER&FIELD_1=REF&VALUE_1=PA00106201
Immeuble,13 Grande-Rue,6.180998,48.695061,http://www.culture.gouv.fr/public/mistral/merimee_fr?ACTION=CHERCHER&FIELD_1=REF&VALUE_1=PA00106202
Immeuble,14 Grande-Rue,6.181577,48.694737,http://www.culture.gouv.fr/public/mistral/merimee_fr?ACTION=CHERCHER&FIELD_1=REF&VALUE_1=PA00106203
Immeuble,17 Grande-Rue,6.1811,48.695305,http://www.culture.gouv.fr/public/mistral/merimee_fr?ACTION=CHERCHER&FIELD_1=REF&VALUE_1=PA00106204
Hotel Ligniville,23 Grande-Rue,6.18092,48.695495,http://www.culture.gouv.fr/public/mistral/merimee_fr?ACTION=CHERCHER&FIELD_1=REF&VALUE_1=PA00106119
Hôtel de Rennel,29 Grande-Rue,6.180797,48.695631,http://www.culture.gouv.fr/public/mistral/merimee_fr?ACTION=CHERCHER&FIELD_1=REF&VALUE_1=PA00106205
Maison Vallees,31 Grande-Rue,6.18084,48.695725,http://www.culture.gouv.fr/public/mistral/merimee_fr?ACTION=CHERCHER&FIELD_1=REF&VALUE_1=PA00106206
Immeuble,33 Grande-Rue,6.18081,48.695769,http://www.culture.gouv.fr/public/mistral/merimee_fr?ACTION=CHERCHER&FIELD_1=REF&VALUE_1=PA00106207
Immeuble,34 Grande-Rue,6.181118,48.695569,http://www.culture.gouv.fr/public/mistral/merimee_fr?ACTION=CHERCHER&FIELD_1=REF&VALUE_1=PA00106208
Immeuble,43 Grande-Rue,6.180333,48.696065,http://www.culture.gouv.fr/public/mistral/merimee_fr?ACTION=CHERCHER&FIELD_1=REF&VALUE_1=PA00106209
Palais Ducs Lorraine,64 Grande-Rue,6.1803,48.6969,http://www.culture.gouv.fr/public/mistral/merimee_fr?ACTION=CHERCHER&FIELD_1=REF&VALUE_1=PA00106304
Eglise Cordeliers,66 Grande-Rue,6.1794,48.6978,http://www.culture.gouv.fr/public/mistral/merimee_fr?ACTION=CHERCHER&FIELD_1=REF&VALUE_1=PA00106105
Maison Boulet,83 Grande-Rue,6.179211,48.696971,http://www.culture.gouv.fr/public/mistral/merimee_fr?ACTION=CHERCHER&FIELD_1=REF&VALUE_1=PA00106210
Immeuble,87 Grande-Rue,6.179228,48.697074,http://www.culture.gouv.fr/public/mistral/merimee_fr?ACTION=CHERCHER&FIELD_1=REF&VALUE_1=PA00106211
Hotel Chastenoy,92 Grande-Rue,6.178399,48.69838,http://www.culture.gouv.fr/public/mistral/merimee_fr?ACTION=CHERCHER&FIELD_1=REF&VALUE_1=PA00106112
Pavillon Est Porte Craffe,104bis Grande-Rue,6.178015,48.698779,http://www.culture.gouv.fr/public/mistral/merimee_fr?ACTION=CHERCHER&FIELD_1=REF&VALUE_1=PA00106307
Pavillon Ouest Porte Craffe,141 Grande-Rue,6.177819,48.698695,http://www.culture.gouv.fr/public/mistral/merimee_fr?ACTION=CHERCHER&FIELD_1=REF&VALUE_1=PA00106308
Porte Craffe,Grande-Rue,6.1778,48.6989,http://www.culture.gouv.fr/public/mistral/merimee_fr?ACTION=CHERCHER&FIELD_1=REF&VALUE_1=PA00106313
Immeuble,19 rue Grandville,6.1793,48.701,http://www.culture.gouv.fr/public/mistral/merimee_fr?ACTION=CHERCHER&FIELD_1=REF&VALUE_1=PA54000077
Immeuble,3 rue de l'Abbé-Gridel,6.161976,48.686357,http://www.culture.gouv.fr/public/mistral/merimee_fr?ACTION=CHERCHER&FIELD_1=REF&VALUE_1=PA00106126
Immeuble,5 rue de l'Abbé-Gridel,6.161922,48.686433,http://www.culture.gouv.fr/public/mistral/merimee_fr?ACTION=CHERCHER&FIELD_1=REF&VALUE_1=PA00106127
Maison,24 rue Pierre Gringoire,6.180346,48.695969,http://www.culture.gouv.fr/public/mistral/merimee_fr?ACTION=CHERCHER&FIELD_1=REF&VALUE_1=PA00106296
Hotel Martigny,2 rue de Guise,6.178447,48.697784,http://www.culture.gouv.fr/public/mistral/merimee_fr?ACTION=CHERCHER&FIELD_1=REF&VALUE_1=PA00106122
Immeuble,6 rue de Guise,6.1781,48.6976,http://www.culture.gouv.fr/public/mistral/merimee_fr?ACTION=CHERCHER&FIELD_1=REF&VALUE_1=PA00106212
Immeuble,10 rue de Guise,6.177506,48.697578,http://www.culture.gouv.fr/public/mistral/merimee_fr?ACTION=CHERCHER&FIELD_1=REF&VALUE_1=PA00106213
Immeuble,21 rue de Guise,6.177304,48.697233,http://www.culture.gouv.fr/public/mistral/merimee_fr?ACTION=CHERCHER&FIELD_1=REF&VALUE_1=PA00106214
Immeuble,25 rue de Guise,6.177079,48.697217,http://www.culture.gouv.fr/public/mistral/merimee_fr?ACTION=CHERCHER&FIELD_1=REF&VALUE_1=PA00106215
Maison Jean Prouve,6 rue Augustin-Hacquard,6.16149,48.700765,http://www.culture.gouv.fr/public/mistral/merimee_fr?ACTION=CHERCHER&FIELD_1=REF&VALUE_1=PA00106294
Immeuble,2 rue Albin-Haller,6.165079,48.695868,http://www.culture.gouv.fr/public/mistral/merimee_fr?ACTION=CHERCHER&FIELD_1=REF&VALUE_1=PA00106128
Immeuble,13 rue Héré,6.182735,48.694011,http://www.culture.gouv.fr/public/mistral/merimee_fr?ACTION=CHERCHER&FIELD_1=REF&VALUE_1=PA00106216
Immeuble,15 rue Héré,6.182692,48.694069,http://www.culture.gouv.fr/public/mistral/merimee_fr?ACTION=CHERCHER&FIELD_1=REF&VALUE_1=PA00106217
Immeuble,16 rue Héré,6.183113,48.69408,http://www.culture.gouv.fr/public/mistral/merimee_fr?ACTION=CHERCHER&FIELD_1=REF&VALUE_1=PA00106218
Immeuble,17 rue Héré,6.182658,48.694116,http://www.culture.gouv.fr/public/mistral/merimee_fr?ACTION=CHERCHER&FIELD_1=REF&VALUE_1=PA00106219
Immeuble,18 rue Héré,6.183079,48.694133,http://www.culture.gouv.fr/public/mistral/merimee_fr?ACTION=CHERCHER&FIELD_1=REF&VALUE_1=PA00106220
Immeuble,19 rue Héré,6.18263,48.694161,http://www.culture.gouv.fr/public/mistral/merimee_fr?ACTION=CHERCHER&FIELD_1=REF&VALUE_1=PA00106221
Immeuble,20 rue Héré,6.183046,48.694178,http://www.culture.gouv.fr/public/mistral/merimee_fr?ACTION=CHERCHER&FIELD_1=REF&VALUE_1=PA00106222
Immeuble,21 rue Héré,6.182595,48.694212,http://www.culture.gouv.fr/public/mistral/merimee_fr?ACTION=CHERCHER&FIELD_1=REF&VALUE_1=PA00106223
Immeuble,22 rue Héré,6.183013,48.694224,http://www.culture.gouv.fr/public/mistral/merimee_fr?ACTION=CHERCHER&FIELD_1=REF&VALUE_1=PA00106224
Immeuble,23 rue Héré,6.182562,48.694259,http://www.culture.gouv.fr/public/mistral/merimee_fr?ACTION=CHERCHER&FIELD_1=REF&VALUE_1=PA00106225
Immeuble,24 rue Héré,6.182979,48.694273,http://www.culture.gouv.fr/public/mistral/merimee_fr?ACTION=CHERCHER&FIELD_1=REF&VALUE_1=PA00106226
Immeuble,26 rue Héré,6.182949,48.694318,http://www.culture.gouv.fr/public/mistral/merimee_fr?ACTION=CHERCHER&FIELD_1=REF&VALUE_1=PA00106227
Immeuble,28 rue Héré,6.182916,48.694364,http://www.culture.gouv.fr/public/mistral/merimee_fr?ACTION=CHERCHER&FIELD_1=REF&VALUE_1=PA00106228
Immeuble,1 rue Jeannot,6.187996,48.689771,http://www.culture.gouv.fr/public/mistral/merimee_fr?ACTION=CHERCHER&FIELD_1=REF&VALUE_1=PA00106229
Synagogue,19 boulevard Joffre,6.1789,48.6876,http://www.culture.gouv.fr/public/mistral/merimee_fr?ACTION=CHERCHER&FIELD_1=REF&VALUE_1=PA00106319
Villa Fruhinsholz,77 avenue du Général-Leclerc,6.181,48.6794,http://www.culture.gouv.fr/public/mistral/merimee_fr?ACTION=CHERCHER&FIELD_1=REF&VALUE_1=PA00106454
Villa Bonnabel,"107, 111 avenue du Général-Leclerc",6.1767,48.6754,http://www.culture.gouv.fr/public/mistral/merimee_fr?ACTION=CHERCHER&FIELD_1=REF&VALUE_1=PA00106321
Immeuble,40 cours Léopold,6.175953,48.696768,http://www.culture.gouv.fr/public/mistral/merimee_fr?ACTION=CHERCHER&FIELD_1=REF&VALUE_1=PA00106230
Immeuble,48 cours Léopold,6.175531,48.697492,http://www.culture.gouv.fr/public/mistral/merimee_fr?ACTION=CHERCHER&FIELD_1=REF&VALUE_1=PA00106231
Maison Bloch,50 cours Léopold,6.1754,48.6976,http://www.culture.gouv.fr/public/mistral/merimee_fr?ACTION=CHERCHER&FIELD_1=REF&VALUE_1=PA00106232
Maison Chardot,52 cours Léopold,6.175336,48.697713,http://www.culture.gouv.fr/public/mistral/merimee_fr?ACTION=CHERCHER&FIELD_1=REF&VALUE_1=PA00106233
Immeuble,54 cours Léopold,6.175379,48.697862,http://www.culture.gouv.fr/public/mistral/merimee_fr?ACTION=CHERCHER&FIELD_1=REF&VALUE_1=PA54000022
Porte Desilles,Cours Léopold - place de Luxembourg,6.1742,48.698,http://www.culture.gouv.fr/public/mistral/merimee_fr?ACTION=CHERCHER&FIELD_1=REF&VALUE_1=PA00106314
Siege Societe Hauts-Fourneaux Fonderies,91 avenue de la Libération,6.165,48.6935,http://www.culture.gouv.fr/public/mistral/merimee_fr?ACTION=CHERCHER&FIELD_1=REF&VALUE_1=PA54000058
Immeuble Bergeret,24 rue Lionnois,6.193172,48.683704,http://www.culture.gouv.fr/public/mistral/merimee_fr?ACTION=CHERCHER&FIELD_1=REF&VALUE_1=PA00106234
Maison Atelier Vallin,6 boulevard Lobau,6.193194,48.690138,http://www.culture.gouv.fr/public/mistral/merimee_fr?ACTION=CHERCHER&FIELD_1=REF&VALUE_1=PA00106235
Immeuble,8 boulevard Lobau,6.193188,48.68988,http://www.culture.gouv.fr/public/mistral/merimee_fr?ACTION=CHERCHER&FIELD_1=REF&VALUE_1=PA00132637
Maison Huot,"92, 92bis quai Claude-le-Lorrain",6.170083,48.698722,http://www.culture.gouv.fr/public/mistral/merimee_fr?ACTION=CHERCHER&FIELD_1=REF&VALUE_1=PA00106184
Immeuble,1 rue Lyautey,6.184713,48.693724,http://www.culture.gouv.fr/public/mistral/merimee_fr?ACTION=CHERCHER&FIELD_1=REF&VALUE_1=PA00106238
Immeuble,3 rue Lyautey,6.185094,48.69385,http://www.culture.gouv.fr/public/mistral/merimee_fr?ACTION=CHERCHER&FIELD_1=REF&VALUE_1=PA00106239
Hotel Baron Vincent,5 rue Lyautey,6.185394,48.693951,http://www.culture.gouv.fr/public/mistral/merimee_fr?ACTION=CHERCHER&FIELD_1=REF&VALUE_1=PA00106240
Immeuble,5bis rue Lyautey,6.185842,48.69408,http://www.culture.gouv.fr/public/mistral/merimee_fr?ACTION=CHERCHER&FIELD_1=REF&VALUE_1=PA00106241
Maison Lecreulx,6 rue Lyautey,6.18534,48.693678,http://www.culture.gouv.fr/public/mistral/merimee_fr?ACTION=CHERCHER&FIELD_1=REF&VALUE_1=PA00106242
Immeuble,7 rue Lyautey,6.185963,48.694153,http://www.culture.gouv.fr/public/mistral/merimee_fr?ACTION=CHERCHER&FIELD_1=REF&VALUE_1=PA00106243
Immeuble,9 rue Lyautey,6.186174,48.694209,http://www.culture.gouv.fr/public/mistral/merimee_fr?ACTION=CHERCHER&FIELD_1=REF&VALUE_1=PA00106244
Immeuble,"10 rue Lyautey
place d'Alliance",6.186638,48.69413,http://www.culture.gouv.fr/public/mistral/merimee_fr?ACTION=CHERCHER&FIELD_1=REF&VALUE_1=PA00106245
Immeuble,11 rue Lyautey,6.186295,48.694254,http://www.culture.gouv.fr/public/mistral/merimee_fr?ACTION=CHERCHER&FIELD_1=REF&VALUE_1=PA00106246
Immeuble,11bis rue Lyautey,6.186402,48.694285,http://www.culture.gouv.fr/public/mistral/merimee_fr?ACTION=CHERCHER&FIELD_1=REF&VALUE_1=PA00106247
Immeuble,12 rue Lyautey,6.187,48.694229,http://www.culture.gouv.fr/public/mistral/merimee_fr?ACTION=CHERCHER&FIELD_1=REF&VALUE_1=PA00106248
Immeuble,13 rue Lyautey,6.186563,48.694337,http://www.culture.gouv.fr/public/mistral/merimee_fr?ACTION=CHERCHER&FIELD_1=REF&VALUE_1=PA00106249
Hotel Grand Chantre,"1 rue Mably
rue du Manège",6.187223,48.691006,http://www.culture.gouv.fr/public/mistral/merimee_fr?ACTION=CHERCHER&FIELD_1=REF&VALUE_1=PA00106250
Hotel grand Doyen,9 rue Mably,6.187744,48.690493,http://www.culture.gouv.fr/public/mistral/merimee_fr?ACTION=CHERCHER&FIELD_1=REF&VALUE_1=PA00106125
Villa Majorelle,1 rue Louis-Majorelle,6.1639,48.6855,http://www.culture.gouv.fr/public/mistral/merimee_fr?ACTION=CHERCHER&FIELD_1=REF&VALUE_1=PA00106322
Immeuble,5 place Malval,6.178839,48.69604,http://www.culture.gouv.fr/public/mistral/merimee_fr?ACTION=CHERCHER&FIELD_1=REF&VALUE_1=PA00106251
Maison,7 place Malval,6.178825,48.696192,http://www.culture.gouv.fr/public/mistral/merimee_fr?ACTION=CHERCHER&FIELD_1=REF&VALUE_1=PA00106455
Maison Luc,"25 rue de Malzéville
1bis rue Michelet",6.179289,48.702121,http://www.culture.gouv.fr/public/mistral/merimee_fr?ACTION=CHERCHER&FIELD_1=REF&VALUE_1=PA00106252
Maison Cavallier,93 rue de Metz,6.169676,48.703955,http://www.culture.gouv.fr/public/mistral/merimee_fr?ACTION=CHERCHER&FIELD_1=REF&VALUE_1=PA00106253
Immeuble,8 rue Montesquieu,6.185346,48.690881,http://www.culture.gouv.fr/public/mistral/merimee_fr?ACTION=CHERCHER&FIELD_1=REF&VALUE_1=PA00106255
Immeuble,11 rue Montesquieu,6.185568,48.690925,http://www.culture.gouv.fr/public/mistral/merimee_fr?ACTION=CHERCHER&FIELD_1=REF&VALUE_1=PA00106256
Maison Renaudin,"49, 51 rue Pasteur",6.168373,48.681575,http://www.culture.gouv.fr/public/mistral/merimee_fr?ACTION=CHERCHER&FIELD_1=REF&VALUE_1=PA00106257
Chapelle de la Visitation,39 rue Henri-Poincaré,6.1792,48.6917,http://www.culture.gouv.fr/public/mistral/merimee_fr?ACTION=CHERCHER&FIELD_1=REF&VALUE_1=PA00106293
Chambre Commerce Industrie Meurthe-Moselle,40 rue Henri-Poincaré,6.1771,48.6913,http://www.culture.gouv.fr/public/mistral/merimee_fr?ACTION=CHERCHER&FIELD_1=REF&VALUE_1=PA00106103
Immeuble,45 rue des Ponts,6.18247,48.687688,http://www.culture.gouv.fr/public/mistral/merimee_fr?ACTION=CHERCHER&FIELD_1=REF&VALUE_1=PA00106258
Immeuble,55 rue des Ponts,6.182991,48.687037,http://www.culture.gouv.fr/public/mistral/merimee_fr?ACTION=CHERCHER&FIELD_1=REF&VALUE_1=PA54000067
Immeuble,16 rue de la Primatiale,6.185327,48.690489,http://www.culture.gouv.fr/public/mistral/merimee_fr?ACTION=CHERCHER&FIELD_1=REF&VALUE_1=PA00106259
Immeuble,18 rue de la Primatiale,6.185405,48.690516,http://www.culture.gouv.fr/public/mistral/merimee_fr?ACTION=CHERCHER&FIELD_1=REF&VALUE_1=PA00106260
Maison Roxard Salle,42 rue des Quatre-Églises,6.183479,48.687359,http://www.culture.gouv.fr/public/mistral/merimee_fr?ACTION=CHERCHER&FIELD_1=REF&VALUE_1=PA00106261
Ancien magasin Vaxelaire Pignot,13 rue Raugraff,6.181682,48.690142,http://www.culture.gouv.fr/public/mistral/merimee_fr?ACTION=CHERCHER&FIELD_1=REF&VALUE_1=PA00132638
Maison Bouret,65 rue de la Ravinelle,6.170797,48.695532,http://www.culture.gouv.fr/public/mistral/merimee_fr?ACTION=CHERCHER&FIELD_1=REF&VALUE_1=PA00135412
Villa Marguerite,3 rue du Colonel-Renard,6.1815,48.6787,http://www.culture.gouv.fr/public/mistral/merimee_fr?ACTION=CHERCHER&FIELD_1=REF&VALUE_1=PA00132629
Hopital Freres Charite,"5, 7 rue Sainte-Catherine",6.185684,48.69482,http://www.culture.gouv.fr/public/mistral/merimee_fr?ACTION=CHERCHER&FIELD_1=REF&VALUE_1=PA00106297
Maison Clodion,22 rue Saint-Dizier,6.182055,48.691152,http://www.culture.gouv.fr/public/mistral/merimee_fr?ACTION=CHERCHER&FIELD_1=REF&VALUE_1=PA00106298
Immeuble,24 rue Saint-Dizier,6.182132,48.691074,http://www.culture.gouv.fr/public/mistral/merimee_fr?ACTION=CHERCHER&FIELD_1=REF&VALUE_1=PA00132639
Immeuble,42-44 rue Saint-Dizier,6.182806,48.690123,http://www.culture.gouv.fr/public/mistral/merimee_fr?ACTION=CHERCHER&FIELD_1=REF&VALUE_1=PA00132640
Maison Hanvs,48 rue Saint-Dizier,6.182835,48.68999,http://www.culture.gouv.fr/public/mistral/merimee_fr?ACTION=CHERCHER&FIELD_1=REF&VALUE_1=PA00106299
Immeuble,112 rue Saint-Dizier,6.184605,48.687736,http://www.culture.gouv.fr/public/mistral/merimee_fr?ACTION=CHERCHER&FIELD_1=REF&VALUE_1=PA00106262
Immeuble Credit Lyonnais,7bis-9 rue Saint-Georges,6.182808,48.691191,http://www.culture.gouv.fr/public/mistral/merimee_fr?ACTION=CHERCHER&FIELD_1=REF&VALUE_1=PA00106106
Immeuble Genin-Louis,"52 rue Saint-Jean
2 rue Benit",6.179222,48.689858,http://www.culture.gouv.fr/public/mistral/merimee_fr?ACTION=CHERCHER&FIELD_1=REF&VALUE_1=PA00106263
Immeuble,5 rue Saint-Julien,6.184214,48.691978,http://www.culture.gouv.fr/public/mistral/merimee_fr?ACTION=CHERCHER&FIELD_1=REF&VALUE_1=PA00106264
Immeuble,9 rue Saint-Léon,6.17308,48.688942,http://www.culture.gouv.fr/public/mistral/merimee_fr?ACTION=CHERCHER&FIELD_1=REF&VALUE_1=PA00106265
Immeuble,"11, 13 rue Saint-Léon",6.173195,48.688767,http://www.culture.gouv.fr/public/mistral/merimee_fr?ACTION=CHERCHER&FIELD_1=REF&VALUE_1=PA00106266
Maison Spilmann,12-14 rue Saint-Léon,6.172911,48.688519,http://www.culture.gouv.fr/public/mistral/merimee_fr?ACTION=CHERCHER&FIELD_1=REF&VALUE_1=PA00132641
Maison,4 rue Saint-Michel,6.178989,48.696946,http://www.culture.gouv.fr/public/mistral/merimee_fr?ACTION=CHERCHER&FIELD_1=REF&VALUE_1=PA00106300
Maison Deux Sirenes,5 rue Saint-Michel,6.17899871,48.69675048,http://www.culture.gouv.fr/public/mistral/merimee_fr?ACTION=CHERCHER&FIELD_1=REF&VALUE_1=PA00106301
Hotel Olbelstein,23 rue Saint-Michel,6.177925,48.696119,http://www.culture.gouv.fr/public/mistral/merimee_fr?ACTION=CHERCHER&FIELD_1=REF&VALUE_1=PA00106267
Hotel Hautoy,26 rue Saint-Michel,6.177369,48.696137,http://www.culture.gouv.fr/public/mistral/merimee_fr?ACTION=CHERCHER&FIELD_1=REF&VALUE_1=PA00106118
Immeuble,9 rue Saint-Nicolas,6.1846,48.69,http://www.culture.gouv.fr/public/mistral/merimee_fr?ACTION=CHERCHER&FIELD_1=REF&VALUE_1=PA54000011
Immeuble,11 rue Saint-Nicolas,6.1846,48.69,http://www.culture.gouv.fr/public/mistral/merimee_fr?ACTION=CHERCHER&FIELD_1=REF&VALUE_1=PA00106268
Immeuble,27 rue Saint-Nicolas,6.1853,48.6891,http://www.culture.gouv.fr/public/mistral/merimee_fr?ACTION=CHERCHER&FIELD_1=REF&VALUE_1=PA00106269
Immeuble,30 rue Saint-Nicolas,6.1853,48.6891,http://www.culture.gouv.fr/public/mistral/merimee_fr?ACTION=CHERCHER&FIELD_1=REF&VALUE_1=PA00106270
Ancienne imprimerie Royer,3bis rue de la Salpétrière,6.185609,48.685494,http://www.culture.gouv.fr/public/mistral/merimee_fr?ACTION=CHERCHER&FIELD_1=REF&VALUE_1=PA00132642
Immeuble,10 rue des Sœurs-Macarons,6.186512,48.689231,http://www.culture.gouv.fr/public/mistral/merimee_fr?ACTION=CHERCHER&FIELD_1=REF&VALUE_1=PA00106271
Immeuble,5 rue de la Source,6.178742,48.69414,http://www.culture.gouv.fr/public/mistral/merimee_fr?ACTION=CHERCHER&FIELD_1=REF&VALUE_1=PA00106272
Hotel Marquis Ville,10 rue de la Source,6.17879,48.695086,http://www.culture.gouv.fr/public/mistral/merimee_fr?ACTION=CHERCHER&FIELD_1=REF&VALUE_1=PA00106121
Immeuble,11 rue de la Source,6.178629,48.694299,http://www.culture.gouv.fr/public/mistral/merimee_fr?ACTION=CHERCHER&FIELD_1=REF&VALUE_1=PA00106273
Immeuble,15 rue de la Source,6.178489,48.694394,http://www.culture.gouv.fr/public/mistral/merimee_fr?ACTION=CHERCHER&FIELD_1=REF&VALUE_1=PA00106274
Hotel Bremoncourt,27 rue de la Source,6.178483,48.69484,http://www.culture.gouv.fr/public/mistral/merimee_fr?ACTION=CHERCHER&FIELD_1=REF&VALUE_1=PA00106275
Hotel Philbert,29 rue de la Source,6.178338,48.69497,http://www.culture.gouv.fr/public/mistral/merimee_fr?ACTION=CHERCHER&FIELD_1=REF&VALUE_1=PA00106276
Hotel Spada,37 rue de la Source,6.1779,48.695408,http://www.culture.gouv.fr/public/mistral/merimee_fr?ACTION=CHERCHER&FIELD_1=REF&VALUE_1=PA00106123
Hotel Ville,Place Stanislas,6.183554,48.693113,http://www.culture.gouv.fr/public/mistral/merimee_fr?ACTION=CHERCHER&FIELD_1=REF&VALUE_1=PA00106124
Hotel Jacquet,1 place Stanislas,6.182532,48.693101,http://www.culture.gouv.fr/public/mistral/merimee_fr?ACTION=CHERCHER&FIELD_1=REF&VALUE_1=PA00106277
Hotel Alliot,2 place Stanislas,6.18423,48.693616,http://www.culture.gouv.fr/public/mistral/merimee_fr?ACTION=CHERCHER&FIELD_1=REF&VALUE_1=PA00106278
Musee Beaux-arts,3 place Stanislas,6.1824,48.6935,http://www.culture.gouv.fr/public/mistral/merimee_fr?ACTION=CHERCHER&FIELD_1=REF&VALUE_1=PA00106279
Opera National Lorraine,4 place Stanislas,6.184,48.694,http://www.culture.gouv.fr/public/mistral/merimee_fr?ACTION=CHERCHER&FIELD_1=REF&VALUE_1=PA00106280
Immeuble,5 place Stanislas,6.182411,48.693843,http://www.culture.gouv.fr/public/mistral/merimee_fr?ACTION=CHERCHER&FIELD_1=REF&VALUE_1=PA00106281
Immeuble,"6, 8 place Stanislas",6.183447,48.694154,http://www.culture.gouv.fr/public/mistral/merimee_fr?ACTION=CHERCHER&FIELD_1=REF&VALUE_1=PA00106282
Immeuble,"7, 9, 11 place Stanislas",6.182591,48.693896,http://www.culture.gouv.fr/public/mistral/merimee_fr?ACTION=CHERCHER&FIELD_1=REF&VALUE_1=PA00106283
Immeuble,10 place Stanislas,6.183334,48.694121,http://www.culture.gouv.fr/public/mistral/merimee_fr?ACTION=CHERCHER&FIELD_1=REF&VALUE_1=PA00106284
Immeuble,12 place Stanislas,6.183262,48.694096,http://www.culture.gouv.fr/public/mistral/merimee_fr?ACTION=CHERCHER&FIELD_1=REF&VALUE_1=PA00106285
Immeuble,14 place Stanislas,6.183162,48.694061,http://www.culture.gouv.fr/public/mistral/merimee_fr?ACTION=CHERCHER&FIELD_1=REF&VALUE_1=PA00106286
Place Stanislas,place Stanislas,6.1833,48.6936,http://www.culture.gouv.fr/public/mistral/merimee_fr?ACTION=CHERCHER&FIELD_1=REF&VALUE_1=PA00106099
Place Stanislas,Place Stanislas,6.18423,48.69362,http://www.culture.gouv.fr/public/mistral/merimee_fr?ACTION=CHERCHER&FIELD_1=REF&VALUE_1=PA00106311
Bibliotheque Municipale,43 rue Stanislas,6.178688,48.692083,http://www.culture.gouv.fr/public/mistral/merimee_fr?ACTION=CHERCHER&FIELD_1=REF&VALUE_1=PA00106287
Immeuble Margo,86 rue Stanislas,6.176592,48.691651,http://www.culture.gouv.fr/public/mistral/merimee_fr?ACTION=CHERCHER&FIELD_1=REF&VALUE_1=PA00106288
Maison Coriolis,"113, 115 avenue de Strasbourg",6.196311,48.679808,http://www.culture.gouv.fr/public/mistral/merimee_fr?ACTION=CHERCHER&FIELD_1=REF&VALUE_1=PA00106289
Immeuble,5 rue des Tiercelins,6.185609,48.689792,http://www.culture.gouv.fr/public/mistral/merimee_fr?ACTION=CHERCHER&FIELD_1=REF&VALUE_1=PA00106290
Immeuble,10 rue des Tiercelins,6.18581,48.689641,http://www.culture.gouv.fr/public/mistral/merimee_fr?ACTION=CHERCHER&FIELD_1=REF&VALUE_1=PA00106291
Immeuble,30 rue des Tiercelins,6.186719,48.689896,http://www.culture.gouv.fr/public/mistral/merimee_fr?ACTION=CHERCHER&FIELD_1=REF&VALUE_1=PA00106292
Maison Alsacienne Fruhinsholz,78 avenue du 20e-Corps,6.199685,48.697405,http://www.culture.gouv.fr/public/mistral/merimee_fr?ACTION=CHERCHER&FIELD_1=REF&VALUE_1=PA00125526
Porte Citadelle,Rue de la Citadelle,6.1781,48.7001,http://www.culture.gouv.fr/public/mistral/merimee_fr?ACTION=CHERCHER&FIELD_1=REF&VALUE_1=PA00106312
Porte Sainte-Catherine,rue Sainte-Catherine - boulevard du 26e-RI,6.19,48.6956,http://www.culture.gouv.fr/public/mistral/merimee_fr?ACTION=CHERCHER&FIELD_1=REF&VALUE_1=PA00106315
Porte Saint-Georges,Place du Colonel-Driant - avenue du XXe-Corps-Américain,6.1887,48.6924,http://www.culture.gouv.fr/public/mistral/merimee_fr?ACTION=CHERCHER&FIELD_1=REF&VALUE_1=PA00106316
Porte Saint-Nicolas,place des Vosges (Nancy) - rue Saint-Dizier,6.1865,48.6855,http://www.culture.gouv.fr/public/mistral/merimee_fr?ACTION=CHERCHER&FIELD_1=REF&VALUE_1=PA00106317
Porte Stanislas,rue Stanislas - rue Mazagran,6.1755,48.6912,http://www.culture.gouv.fr/public/mistral/merimee_fr?ACTION=CHERCHER&FIELD_1=REF&VALUE_1=PA00106318
Temple protestant de Nancy,place Maginot,6.1778,48.6901,http://www.culture.gouv.fr/public/mistral/merimee_fr?ACTION=CHERCHER&FIELD_1=REF&VALUE_1=PA00106320
Abbatiale Sainte-Glossinde,Place Sainte-Glossinde,6.1735,49.1132,http://www.culture.gouv.fr/public/mistral/merimee_fr?ACTION=CHERCHER&FIELD_1=REF&VALUE_1=PA00106811
Abbaye Saint-Arnould,"Rue aux Ours
Rue Poncelet",6.1719,49.1179,http://www.culture.gouv.fr/public/mistral/merimee_fr?ACTION=CHERCHER&FIELD_1=REF&VALUE_1=PA00106809
Abbaye Saint-Clement Metz,28 rue du Pontiffroy,6.1761,49.1247,http://www.culture.gouv.fr/public/mistral/merimee_fr?ACTION=CHERCHER&FIELD_1=REF&VALUE_1=PA00106810
Abbaye et basilique Saint-Vincent,Place Saint-Vincent,6.1729,49.1236,http://www.culture.gouv.fr/public/mistral/merimee_fr?ACTION=CHERCHER&FIELD_1=REF&VALUE_1=PA00106835
Basses Grilles Seille,,6.18541,49.12105,http://www.culture.gouv.fr/public/mistral/merimee_fr?ACTION=CHERCHER&FIELD_1=REF&VALUE_1=PA00106837
Caserne Chambiere,,6.1907,49.1328,http://www.culture.gouv.fr/public/mistral/merimee_fr?ACTION=CHERCHER&FIELD_1=REF&VALUE_1=PA00106814
Caserne Cloitre,Rue Saint-Marcel,6.1718,49.1223,http://www.culture.gouv.fr/public/mistral/merimee_fr?ACTION=CHERCHER&FIELD_1=REF&VALUE_1=PA00106815
Caserne Ney,Avenue Ney,6.1712,49.1138,http://www.culture.gouv.fr/public/mistral/merimee_fr?ACTION=CHERCHER&FIELD_1=REF&VALUE_1=PA00106816
Cathedrale Saint-Etienne,"Place d'Armes
Place Jean-Paul-II
Place Saint-Étienne
Rue d'Estrée",6.1756,49.1203,http://www.culture.gouv.fr/public/mistral/merimee_fr?ACTION=CHERCHER&FIELD_1=REF&VALUE_1=PA00106817
Chapelle Misericorde,"32, 34 rue de la Chèvre",6.1782,49.1163,http://www.culture.gouv.fr/public/mistral/merimee_fr?ACTION=CHERCHER&FIELD_1=REF&VALUE_1=PA00106818
Chapelle Petit-Saint-Jean,13 rue Vincentrue,6.176,49.1238,http://www.culture.gouv.fr/public/mistral/merimee_fr?ACTION=CHERCHER&FIELD_1=REF&VALUE_1=PA00106820
Chapelle Saint-Genest,3 en Jurue,6.1783,49.1186,http://www.culture.gouv.fr/public/mistral/merimee_fr?ACTION=CHERCHER&FIELD_1=REF&VALUE_1=PA00106819
Chapelle Templiers,,6.1698,49.1145,http://www.culture.gouv.fr/public/mistral/merimee_fr?ACTION=CHERCHER&FIELD_1=REF&VALUE_1=PA00106821
Cimetiere Est,Avenue de Strasbourg,6.202,49.1095,http://www.culture.gouv.fr/public/mistral/merimee_fr?ACTION=CHERCHER&FIELD_1=REF&VALUE_1=PA57000026
Cloitre Recollets,"2 rue de l'Abbé-Risse
1 rue des Récollets",6.1802,49.1195,http://www.culture.gouv.fr/public/mistral/merimee_fr?ACTION=CHERCHER&FIELD_1=REF&VALUE_1=PA00106826
College Jesuites,Place Gabriel-Hocquard,6.1761,49.1246,http://www.culture.gouv.fr/public/mistral/merimee_fr?ACTION=CHERCHER&FIELD_1=REF&VALUE_1=PA00106822
Collegiale Saint-Sauveur,6 rue du Petit-Paris,6.1752,49.1184,http://www.culture.gouv.fr/public/mistral/merimee_fr?ACTION=CHERCHER&FIELD_1=REF&VALUE_1=PA00106823
Corps Garde,2 place d'Armes,6.1765,49.1203,http://www.culture.gouv.fr/public/mistral/merimee_fr?ACTION=CHERCHER&FIELD_1=REF&VALUE_1=PA00106813
Ecole Application Artillerie Genie,"64, 66 rue Saint-Michel",6.1728,49.116,http://www.culture.gouv.fr/public/mistral/merimee_fr?ACTION=CHERCHER&FIELD_1=REF&VALUE_1=PA00106827
Ecole Chanteclair-Debussy,29/31 boulevard Paixhans,6.183,49.1231,http://www.culture.gouv.fr/public/mistral/merimee_fr?ACTION=CHERCHER&FIELD_1=REF&VALUE_1=PA57000034
Eglise Grands-Carmes,,6.1826,49.1225,http://www.culture.gouv.fr/public/mistral/merimee_fr?ACTION=CHERCHER&FIELD_1=REF&VALUE_1=PA00106828
Eglise Notre-Dame,21 rue de la Chèvre,6.1778,49.1165,http://www.culture.gouv.fr/public/mistral/merimee_fr?ACTION=CHERCHER&FIELD_1=REF&VALUE_1=PA00106829
Eglise Sainte-Lucie,Rue Jean-Pierre-Jean,6.2179,49.1259,http://www.culture.gouv.fr/public/mistral/merimee_fr?ACTION=CHERCHER&FIELD_1=REF&VALUE_1=PA00107055
Eglise Sainte-Segolene,Place Jeanne-d'Arc,6.1803,49.1214,http://www.culture.gouv.fr/public/mistral/merimee_fr?ACTION=CHERCHER&FIELD_1=REF&VALUE_1=PA00106834
Eglise Sainte-Therese-Enfant-Jesus,Rue de Verdun,6.167,49.106,http://www.culture.gouv.fr/public/mistral/merimee_fr?ACTION=CHERCHER&FIELD_1=REF&VALUE_1=PA00107056
Eglise Saint-Etienne-Depenne,1 rue Gaudrée,6.1838,49.1151,http://www.culture.gouv.fr/public/mistral/merimee_fr?ACTION=CHERCHER&FIELD_1=REF&VALUE_1=PA00106830
Eglise Saint-Eucaire,Rue des Allemands,6.184,49.118,http://www.culture.gouv.fr/public/mistral/merimee_fr?ACTION=CHERCHER&FIELD_1=REF&VALUE_1=PA00106831
Eglise Saint-Martin,Rue Lasalle,6.1769,49.1144,http://www.culture.gouv.fr/public/mistral/merimee_fr?ACTION=CHERCHER&FIELD_1=REF&VALUE_1=PA00106832
Eglise Saint-Maximin,Rue Mazelle,6.1836,49.1158,http://www.culture.gouv.fr/public/mistral/merimee_fr?ACTION=CHERCHER&FIELD_1=REF&VALUE_1=PA00106833
Eglise Saint-Pierre-Nonnains,Rue de la Citadelle,6.1694,49.115,http://www.culture.gouv.fr/public/mistral/merimee_fr?ACTION=CHERCHER&FIELD_1=REF&VALUE_1=PA00106812
Eglise Saint-Simon-Saint-Jude,4 à 9 place de France,6.1666,49.127,http://www.culture.gouv.fr/public/mistral/merimee_fr?ACTION=CHERCHER&FIELD_1=REF&VALUE_1=PA00107034
Eglise Trinitaires,2 rue des Trinitaires,6.1791,49.1206,http://www.culture.gouv.fr/public/mistral/merimee_fr?ACTION=CHERCHER&FIELD_1=REF&VALUE_1=PA00106836
Enceinte Medievale,,6.18584,49.12204,http://www.culture.gouv.fr/public/mistral/merimee_fr?ACTION=CHERCHER&FIELD_1=REF&VALUE_1=PA00106837
Fontaine Coislin,Rue Cambout,6.1808,49.114461,http://www.culture.gouv.fr/public/mistral/merimee_fr?ACTION=CHERCHER&FIELD_1=REF&VALUE_1=PA00106838
Fontaine Place Sainte-Croix,Place Sainte-Croix,6.1758,49.1199,http://www.culture.gouv.fr/public/mistral/merimee_fr?ACTION=CHERCHER&FIELD_1=REF&VALUE_1=PA00106839
Fort Moselle,,6.168,49.1271,http://www.culture.gouv.fr/public/mistral/merimee_fr?ACTION=CHERCHER&FIELD_1=REF&VALUE_1=PA00106917
Fort Queuleu,Allée Jean-Burger,6.2029,49.0973,http://www.culture.gouv.fr/public/mistral/merimee_fr?ACTION=CHERCHER&FIELD_1=REF&VALUE_1=PA00106840
Gare Metz-Ville,Place Général-de-Gaulle,6.1772,49.1098,http://www.culture.gouv.fr/public/mistral/merimee_fr?ACTION=CHERCHER&FIELD_1=REF&VALUE_1=PA00106842
Grange Antonistes,7 rue des Piques,6.1785,49.1217,http://www.culture.gouv.fr/public/mistral/merimee_fr?ACTION=CHERCHER&FIELD_1=REF&VALUE_1=PA00106824
Grenier Chevremont,Rue du Chèvremont,6.1785,49.1217,http://www.culture.gouv.fr/public/mistral/merimee_fr?ACTION=CHERCHER&FIELD_1=REF&VALUE_1=PA00106843
Hopital Militaire Fort Moselle,Quai Richepanse,6.1703,49.128,http://www.culture.gouv.fr/public/mistral/merimee_fr?ACTION=CHERCHER&FIELD_1=REF&VALUE_1=PA00106844
Hospice Saint-Nicolas,"2 place Saint-Nicolas
En Nicolairue",6.1783,49.114,http://www.culture.gouv.fr/public/mistral/merimee_fr?ACTION=CHERCHER&FIELD_1=REF&VALUE_1=PA00106845
Hotel Arts Metiers,"1, 3 avenue Foch
5 place Raymond-Mondon
2, 2bis rue Gambetta",6.173,49.1114,http://www.culture.gouv.fr/public/mistral/merimee_fr?ACTION=CHERCHER&FIELD_1=REF&VALUE_1=PA57000022
Hotel Bulette,1 place ste Croix,6.1789,49.1201,http://www.culture.gouv.fr/public/mistral/merimee_fr?ACTION=CHERCHER&FIELD_1=REF&VALUE_1=PA00106846
Hotel Burtaigne,"4, 6 place des Charrons",6.1818,49.1158,http://www.culture.gouv.fr/public/mistral/merimee_fr?ACTION=CHERCHER&FIELD_1=REF&VALUE_1=PA00106848
Hotel Gargan,9 en Nexirue,6.1731,49.1178,http://www.culture.gouv.fr/public/mistral/merimee_fr?ACTION=CHERCHER&FIELD_1=REF&VALUE_1=PA00106847
Hotel Gournay,9 rue du Grand-Cerf,6.1779,49.1157,http://www.culture.gouv.fr/public/mistral/merimee_fr?ACTION=CHERCHER&FIELD_1=REF&VALUE_1=PA00106871
Hotel Heu,"19, 21 rue de la Fontaine",6.1781,49.1144,http://www.culture.gouv.fr/public/mistral/merimee_fr?ACTION=CHERCHER&FIELD_1=REF&VALUE_1=PA00106849
Hotel Malte,"9 rue des Murs
Rue d'Enfer",6.1792,49.1186,http://www.culture.gouv.fr/public/mistral/merimee_fr?ACTION=CHERCHER&FIELD_1=REF&VALUE_1=PA00107035
Hotel Parlement,12 place d'Armes,6.175446,49.119394,http://www.culture.gouv.fr/public/mistral/merimee_fr?ACTION=CHERCHER&FIELD_1=REF&VALUE_1=PA00106853
Hotel Parlement,"13, 14, 15, 16, 17, 18 place d'Armes",6.1754,49.1194,http://www.culture.gouv.fr/public/mistral/merimee_fr?ACTION=CHERCHER&FIELD_1=REF&VALUE_1=PA00106854
Hotel Saint-Livier,1bis rue des Trinitaires,6.1793,49.1208,http://www.culture.gouv.fr/public/mistral/merimee_fr?ACTION=CHERCHER&FIELD_1=REF&VALUE_1=PA00106851
Hotel Ville,Place d'Armes,6.1763,49.1197,http://www.culture.gouv.fr/public/mistral/merimee_fr?ACTION=CHERCHER&FIELD_1=REF&VALUE_1=PA00106852
Immeuble,12 rue des Bénédictins,6.1742,49.1248,http://www.culture.gouv.fr/public/mistral/merimee_fr?ACTION=CHERCHER&FIELD_1=REF&VALUE_1=PA00106855
Immeuble,20 rue Chèvremont,6.1781,49.1219,http://www.culture.gouv.fr/public/mistral/merimee_fr?ACTION=CHERCHER&FIELD_1=REF&VALUE_1=PA00106857
Immeuble,"3, 3bis rue du Coëtlosquet
4 rue des Trois-Boulangers",6.17513,49.11459,http://www.culture.gouv.fr/public/mistral/merimee_fr?ACTION=CHERCHER&FIELD_1=REF&VALUE_1=PA00106858
Immeuble,"1, 2, 3, 6, 6bis, 7, 11 place de la Comédie",6.1719,49.1213,http://www.culture.gouv.fr/public/mistral/merimee_fr?ACTION=CHERCHER&FIELD_1=REF&VALUE_1=PA00106859
Immeuble,11 rue de la Fontaine,6.1785,49.1147,http://www.culture.gouv.fr/public/mistral/merimee_fr?ACTION=CHERCHER&FIELD_1=REF&VALUE_1=PA00135718
Immeuble,20 rue Ladoucette,6.1766,49.1183,http://www.culture.gouv.fr/public/mistral/merimee_fr?ACTION=CHERCHER&FIELD_1=REF&VALUE_1=PA00106860
Immeuble,63 En Fournirue,6.1786,49.118,http://www.culture.gouv.fr/public/mistral/merimee_fr?ACTION=CHERCHER&FIELD_1=REF&VALUE_1=PA00106856
Immeuble,"9 rue du Neufbourg
7 place Saint-Nicolas",6.1779,49.1135,http://www.culture.gouv.fr/public/mistral/merimee_fr?ACTION=CHERCHER&FIELD_1=REF&VALUE_1=PA00106878
Magasin Vivres,5 avenue Ney,6.1701,49.114,http://www.culture.gouv.fr/public/mistral/merimee_fr?ACTION=CHERCHER&FIELD_1=REF&VALUE_1=PA00106861
Maison,19 rue du Change,6.1789,49.1173,http://www.culture.gouv.fr/public/mistral/merimee_fr?ACTION=CHERCHER&FIELD_1=REF&VALUE_1=PA00106862
Maison,"21, 23 rue du Change",6.1788,49.117,http://www.culture.gouv.fr/public/mistral/merimee_fr?ACTION=CHERCHER&FIELD_1=REF&VALUE_1=PA00106863
Maison,25 rue du Change,6.1789,49.1174,http://www.culture.gouv.fr/public/mistral/merimee_fr?ACTION=CHERCHER&FIELD_1=REF&VALUE_1=PA00106864
Maison,27 rue du Change,6.1785,49.1174,http://www.culture.gouv.fr/public/mistral/merimee_fr?ACTION=CHERCHER&FIELD_1=REF&VALUE_1=PA00106865
Maison,"12, 14 rue du Chanoine-Collin",6.1773,49.121,http://www.culture.gouv.fr/public/mistral/merimee_fr?ACTION=CHERCHER&FIELD_1=REF&VALUE_1=PA00106866
Maison,2 rue Châtillon,6.1743,49.113,http://www.culture.gouv.fr/public/mistral/merimee_fr?ACTION=CHERCHER&FIELD_1=REF&VALUE_1=PA00106867
Maison,9 et 11 rue de la Fontaine,6.1785,49.1147,http://www.culture.gouv.fr/public/mistral/merimee_fr?ACTION=CHERCHER&FIELD_1=REF&VALUE_1=PA00107073
Maison,36 en Fournirue,6.17703,49.118735,http://www.culture.gouv.fr/public/mistral/merimee_fr?ACTION=CHERCHER&FIELD_1=REF&VALUE_1=PA00106868
Maison,60 en Fournirue,6.17798,49.118304,http://www.culture.gouv.fr/public/mistral/merimee_fr?ACTION=CHERCHER&FIELD_1=REF&VALUE_1=PA00106870
Maison,8 rue de la Haye,6.1705,49.1207,http://www.culture.gouv.fr/public/mistral/merimee_fr?ACTION=CHERCHER&FIELD_1=REF&VALUE_1=PA00106873
Maison,29 en Jurue,6.1785,49.1196,http://www.culture.gouv.fr/public/mistral/merimee_fr?ACTION=CHERCHER&FIELD_1=REF&VALUE_1=PA00106874
Maison,2 rue Marchant,6.1801,49.1222,http://www.culture.gouv.fr/public/mistral/merimee_fr?ACTION=CHERCHER&FIELD_1=REF&VALUE_1=PA00106875
Maison,15 rue Maurice-Barrès,6.17519,49.11355,http://www.culture.gouv.fr/public/mistral/merimee_fr?ACTION=CHERCHER&FIELD_1=REF&VALUE_1=PA00106876
Maison,8 rue Mazelle,6.1805,49.1177,http://www.culture.gouv.fr/public/mistral/merimee_fr?ACTION=CHERCHER&FIELD_1=REF&VALUE_1=PA00106877
Maison,"10, 12 rue du Pont-de-la-Préfecture",6.175,49.1211,http://www.culture.gouv.fr/public/mistral/merimee_fr?ACTION=CHERCHER&FIELD_1=REF&VALUE_1=PA00106879
Maison,2 place Sainte-Croix,6.17852,49.120026,http://www.culture.gouv.fr/public/mistral/merimee_fr?ACTION=CHERCHER&FIELD_1=REF&VALUE_1=PA00106880
Maison,8 place Sainte-Croix,6.1788,49.120222,http://www.culture.gouv.fr/public/mistral/merimee_fr?ACTION=CHERCHER&FIELD_1=REF&VALUE_1=PA00106881
Maison,"10 place Saint-Étienne
8 place de la Chambre",6.1749,49.1206,http://www.culture.gouv.fr/public/mistral/merimee_fr?ACTION=CHERCHER&FIELD_1=REF&VALUE_1=PA00106882
Maison,14 place Saint-Jacques,6.1762,49.1186,http://www.culture.gouv.fr/public/mistral/merimee_fr?ACTION=CHERCHER&FIELD_1=REF&VALUE_1=PA00106883
Maison,"1, 3 place Saint-Louis",6.178922,49.117262,http://www.culture.gouv.fr/public/mistral/merimee_fr?ACTION=CHERCHER&FIELD_1=REF&VALUE_1=PA00106884
Maison,"5, 7 place Saint-Louis",6.17889,49.117176,http://www.culture.gouv.fr/public/mistral/merimee_fr?ACTION=CHERCHER&FIELD_1=REF&VALUE_1=PA00106885
Maison,"9, 11 place Saint-Louis",6.17885,49.11712,http://www.culture.gouv.fr/public/mistral/merimee_fr?ACTION=CHERCHER&FIELD_1=REF&VALUE_1=PA00106886
Maison,13 place Saint-Louis,6.17884,49.11703,http://www.culture.gouv.fr/public/mistral/merimee_fr?ACTION=CHERCHER&FIELD_1=REF&VALUE_1=PA00106887
Maison,15 place Saint-Louis,6.17883,49.11699,http://www.culture.gouv.fr/public/mistral/merimee_fr?ACTION=CHERCHER&FIELD_1=REF&VALUE_1=PA00106888
Maison,17 place Saint-Louis,6.17883,49.11695,http://www.culture.gouv.fr/public/mistral/merimee_fr?ACTION=CHERCHER&FIELD_1=REF&VALUE_1=PA00106889
Maison,"19, 21 place Saint-Louis",6.17882,49.11688,http://www.culture.gouv.fr/public/mistral/merimee_fr?ACTION=CHERCHER&FIELD_1=REF&VALUE_1=PA00106890
Maison,21bis place Saint-Louis,6.17878,49.1168,http://www.culture.gouv.fr/public/mistral/merimee_fr?ACTION=CHERCHER&FIELD_1=REF&VALUE_1=PA00106891
Maison,23 place Saint-Louis,6.1784,49.1166,http://www.culture.gouv.fr/public/mistral/merimee_fr?ACTION=CHERCHER&FIELD_1=REF&VALUE_1=PA00106892
Maison,25 place Saint-Louis,6.17876,49.11661,http://www.culture.gouv.fr/public/mistral/merimee_fr?ACTION=CHERCHER&FIELD_1=REF&VALUE_1=PA00106893
Maison,27 place Saint-Louis,6.17875,49.11657,http://www.culture.gouv.fr/public/mistral/merimee_fr?ACTION=CHERCHER&FIELD_1=REF&VALUE_1=PA00106894
Maison,"29, 31, 33 place Saint-Louis",6.17874,49.11651,http://www.culture.gouv.fr/public/mistral/merimee_fr?ACTION=CHERCHER&FIELD_1=REF&VALUE_1=PA00106895
Maison,35 place Saint-Louis,6.17871,49.11639,http://www.culture.gouv.fr/public/mistral/merimee_fr?ACTION=CHERCHER&FIELD_1=REF&VALUE_1=PA00106896
Maison,37 place Saint-Louis,6.1787,49.11635,http://www.culture.gouv.fr/public/mistral/merimee_fr?ACTION=CHERCHER&FIELD_1=REF&VALUE_1=PA00106897
Maison,39 place Saint-Louis,6.17868,49.11631,http://www.culture.gouv.fr/public/mistral/merimee_fr?ACTION=CHERCHER&FIELD_1=REF&VALUE_1=PA00106898
Maison,"41, 43 place Saint-Louis",6.17866,49.11625,http://www.culture.gouv.fr/public/mistral/merimee_fr?ACTION=CHERCHER&FIELD_1=REF&VALUE_1=PA00106899
Maison,45 place Saint-Louis,6.17865,49.11618,http://www.culture.gouv.fr/public/mistral/merimee_fr?ACTION=CHERCHER&FIELD_1=REF&VALUE_1=PA00106900
Maison,47 place Saint-Louis,6.17863,49.11616,http://www.culture.gouv.fr/public/mistral/merimee_fr?ACTION=CHERCHER&FIELD_1=REF&VALUE_1=PA00106901
Maison,49 place Saint-Louis,6.17862,49.11613,http://www.culture.gouv.fr/public/mistral/merimee_fr?ACTION=CHERCHER&FIELD_1=REF&VALUE_1=PA00106902
Maison,51 place Saint-Louis,6.17862,49.11606,http://www.culture.gouv.fr/public/mistral/merimee_fr?ACTION=CHERCHER&FIELD_1=REF&VALUE_1=PA00106903
Maison,53 place Saint-Louis,6.1786,49.11602,http://www.culture.gouv.fr/public/mistral/merimee_fr?ACTION=CHERCHER&FIELD_1=REF&VALUE_1=PA00106904
Maison,55 place Saint-Louis,6.17859,49.11595,http://www.culture.gouv.fr/public/mistral/merimee_fr?ACTION=CHERCHER&FIELD_1=REF&VALUE_1=PA00106905
Maison,57 place Saint-Louis,6.17858,49.11589,http://www.culture.gouv.fr/public/mistral/merimee_fr?ACTION=CHERCHER&FIELD_1=REF&VALUE_1=PA00106906
Maison,59 place Saint-Louis,6.17858,49.11585,http://www.culture.gouv.fr/public/mistral/merimee_fr?ACTION=CHERCHER&FIELD_1=REF&VALUE_1=PA00106907
Maison,61 place Saint-Louis,6.17857,49.11581,http://www.culture.gouv.fr/public/mistral/merimee_fr?ACTION=CHERCHER&FIELD_1=REF&VALUE_1=PA00106908
Maison,63 place Saint-Louis,6.1782,49.1159,http://www.culture.gouv.fr/public/mistral/merimee_fr?ACTION=CHERCHER&FIELD_1=REF&VALUE_1=PA00106909
Maison,42 rue Saint-Marcel,6.1711,49.1225,http://www.culture.gouv.fr/public/mistral/merimee_fr?ACTION=CHERCHER&FIELD_1=REF&VALUE_1=PA00106910
Maison,45 rue Vigne-Saint-Avold,6.1833,49.1144,http://www.culture.gouv.fr/public/mistral/merimee_fr?ACTION=CHERCHER&FIELD_1=REF&VALUE_1=PA00106911
Maison Natale Paul Verlaine,2 rue Haute-Pierre,6.1713,49.1172,http://www.culture.gouv.fr/public/mistral/merimee_fr?ACTION=CHERCHER&FIELD_1=REF&VALUE_1=PA00106872
Maison Tetes,51 rue En Fournirue,6.1781,49.1182,http://www.culture.gouv.fr/public/mistral/merimee_fr?ACTION=CHERCHER&FIELD_1=REF&VALUE_1=PA00106869
Opera-theatre,5 place de la Comédie,6.1728,49.1217,http://www.culture.gouv.fr/public/mistral/merimee_fr?ACTION=CHERCHER&FIELD_1=REF&VALUE_1=PA00106920
Palais Gouverneur,Rue de la Citadelle,6.1684,49.1134,http://www.culture.gouv.fr/public/mistral/merimee_fr?ACTION=CHERCHER&FIELD_1=REF&VALUE_1=PA00106912
Palais Justice,3 rue Haute-Pierre,6.1711,49.1168,http://www.culture.gouv.fr/public/mistral/merimee_fr?ACTION=CHERCHER&FIELD_1=REF&VALUE_1=PA00106913
Place Armes,,6.1759,49.1199,http://www.culture.gouv.fr/public/mistral/merimee_fr?ACTION=CHERCHER&FIELD_1=REF&VALUE_1=PA00106914
Place Saint-Etienne,,6.1749,49.1201,http://www.culture.gouv.fr/public/mistral/merimee_fr?ACTION=CHERCHER&FIELD_1=REF&VALUE_1=PA00106915
Pont Thermes,,6.1764,49.123,http://www.culture.gouv.fr/public/mistral/merimee_fr?ACTION=CHERCHER&FIELD_1=REF&VALUE_1=PA00106916
Porte Allemands,,6.1855,49.1179,http://www.culture.gouv.fr/public/mistral/merimee_fr?ACTION=CHERCHER&FIELD_1=REF&VALUE_1=PA00106837
Porte Bellecroix,Rue du Corps-Expéditionnaire-Français,6.1915,49.1207,http://www.culture.gouv.fr/public/mistral/merimee_fr?ACTION=CHERCHER&FIELD_1=REF&VALUE_1=PA00106841
Poste Centrale,"Rue Gambetta
Rue Charlemagne
Rue d'Austrasie
Rue La Fayette",6.1753,49.11,http://www.culture.gouv.fr/public/mistral/merimee_fr?ACTION=CHERCHER&FIELD_1=REF&VALUE_1=PA00106850
Synagogue,39 rue du Rabbin-Elie-Bloch,6.1804,49.1233,http://www.culture.gouv.fr/public/mistral/merimee_fr?ACTION=CHERCHER&FIELD_1=REF&VALUE_1=PA00106918
Temple Neuf,Place de la Comédie,6.1719,49.1206,http://www.culture.gouv.fr/public/mistral/merimee_fr?ACTION=CHERCHER&FIELD_1=REF&VALUE_1=PA00106919
